[
{"country":"South Africa","city":"gqaka","accent_city":"Gqaka","province":"Eastern Cape","lat":-31.553917,"lng":28.210587,"province_id":5},
{"country":"South Africa","city":"gqaqala","accent_city":"Gqaqala","province":"Eastern Cape","lat":-31.275246,"lng":28.422504,"province_id":5},
{"country":"South Africa","city":"gqiba","accent_city":"Gqiba","province":"Eastern Cape","lat":-32.293342,"lng":28.686302,"province_id":5},
{"country":"South Africa","city":"gqobonco","accent_city":"Gqobonco","province":"Eastern Cape","lat":-31.623649,"lng":28.255605,"province_id":5},
{"country":"South Africa","city":"gqogqora","accent_city":"Gqogqora","province":"Eastern Cape","lat":-31.466667,"lng":28.533333,"province_id":5},
{"country":"South Africa","city":"gqola","accent_city":"Gqola","province":"Eastern Cape","lat":-33.175137,"lng":27.52234,"province_id":5},
{"country":"South Africa","city":"gqoloma","accent_city":"Gqoloma","province":"Eastern Cape","lat":-30.881152,"lng":28.845627,"province_id":5},
{"country":"South Africa","city":"gqora","accent_city":"Gqora","province":"Eastern Cape","lat":-33.116667,"lng":27.05,"province_id":5},
{"country":"South Africa","city":"gqubeni","accent_city":"Gqubeni","province":"Eastern Cape","lat":-31.886576,"lng":29.055966,"province_id":5},
{"country":"South Africa","city":"gqubonco","accent_city":"Gqubonco","province":"Eastern Cape","lat":-31.616963,"lng":28.193974,"province_id":5},
{"country":"South Africa","city":"gqukangqa","accent_city":"Gqukangqa","province":"Eastern Cape","lat":-31.019779,"lng":28.604282,"province_id":5},
{"country":"South Africa","city":"gqukungqa","accent_city":"Gqukungqa","province":"Eastern Cape","lat":-31.019779,"lng":28.604282,"province_id":5},
{"country":"South Africa","city":"gqukunqa","accent_city":"Gqukunqa","province":"Eastern Cape","lat":-31.019779,"lng":28.604282,"province_id":5},
{"country":"South Africa","city":"gqunce","accent_city":"Gqunce","province":"Eastern Cape","lat":-32.295741,"lng":28.379101,"province_id":5},
{"country":"South Africa","city":"gqunge","accent_city":"Gqunge","province":"Eastern Cape","lat":-32.450818,"lng":28.53111,"province_id":5},
{"country":"South Africa","city":"gqunge trading store","accent_city":"Gqunge Trading Store","province":"Eastern Cape","lat":-32.466667,"lng":28.55,"province_id":5},
{"country":"South Africa","city":"gqunqe","accent_city":"Gqunqe","province":"Eastern Cape","lat":-32.45,"lng":28.45,"province_id":5},
{"country":"South Africa","city":"gqutyini","accent_city":"Gqutyini","province":"Eastern Cape","lat":-31.626616,"lng":27.881495,"province_id":5},
{"country":"South Africa","city":"gqwesa","accent_city":"Gqwesa","province":"Eastern Cape","lat":-30.8943,"lng":28.742831,"province_id":5},
{"country":"South Africa","city":"gqweta","accent_city":"Gqweta","province":"Mpumalanga","lat":-24.909926,"lng":31.039323,"province_id":7},
{"country":"South Africa","city":"graaff-reinet","accent_city":"Graaff-Reinet","province":"Eastern Cape","lat":-32.25,"lng":24.55,"province_id":5},
{"country":"South Africa","city":"graaf reinet","accent_city":"Graaf Reinet","province":"Eastern Cape","lat":-32.25,"lng":24.55,"province_id":5},
{"country":"South Africa","city":"graafwater","accent_city":"Graafwater","province":"Western Cape","lat":-32.154656,"lng":18.603187,"province_id":11},
{"country":"South Africa","city":"grabouw","accent_city":"Grabouw","province":"Western Cape","lat":-34.151519,"lng":19.015091,"province_id":11},
{"country":"South Africa","city":"grahamstad","accent_city":"Grahamstad","province":"Eastern Cape","lat":-33.304216,"lng":26.53276,"province_id":5},
{"country":"South Africa","city":"grahamstown","accent_city":"Grahamstown","province":"Eastern Cape","lat":-33.304216,"lng":26.53276,"province_id":5},
{"country":"South Africa","city":"graley","accent_city":"Graley","province":"Gauteng","lat":-25.766667,"lng":28.85,"province_id":6},
{"country":"South Africa","city":"grantham park","accent_city":"Grantham Park","province":"KwaZulu Natal","lat":-28.765959,"lng":31.899037,"province_id":2},
{"country":"South Africa","city":"grantion","accent_city":"Grantion","province":"North West","lat":-27.057882,"lng":23.430365,"province_id":10},
{"country":"South Africa","city":"grantleigh","accent_city":"Grantleigh","province":"KwaZulu Natal","lat":-28.85,"lng":29.633333,"province_id":2},
{"country":"South Africa","city":"grantleigh","accent_city":"Grantleigh","province":"North West","lat":-25.857579,"lng":25.695491,"province_id":10},
{"country":"South Africa","city":"grasbult","accent_city":"Grasbult","province":"Northern Cape","lat":-29.64894,"lng":22.229218,"province_id":8},
{"country":"South Africa","city":"graskop","accent_city":"Graskop","province":"Mpumalanga","lat":-24.931442,"lng":30.841908,"province_id":7},
{"country":"South Africa","city":"grasmere","accent_city":"Grasmere","province":"Gauteng","lat":-26.427497,"lng":27.86023,"province_id":6},
{"country":"South Africa","city":"graspan","accent_city":"Graspan","province":"Northern Cape","lat":-30.106538,"lng":22.485489,"province_id":8},
{"country":"South Africa","city":"grasrug","accent_city":"Grasrug","province":"Northern Cape","lat":-27.613558,"lng":23.887684,"province_id":8},
{"country":"South Africa","city":"grassdale","accent_city":"Grassdale","province":"Eastern Cape","lat":-31.398824,"lng":26.510452,"province_id":5},
{"country":"South Africa","city":"grasslands","accent_city":"Grasslands","province":"Free State","lat":-29.155451,"lng":26.288537,"province_id":3},
{"country":"South Africa","city":"grasslands","accent_city":"Grasslands","province":"Eastern Cape","lat":-31.327672,"lng":26.306253,"province_id":5},
{"country":"South Africa","city":"grassmoor","accent_city":"Grassmoor","province":"Northern Cape","lat":-29.92664,"lng":22.191315,"province_id":8},
{"country":"South Africa","city":"grassridge","accent_city":"Grassridge","province":"Eastern Cape","lat":-31.785588,"lng":25.452898,"province_id":5},
{"country":"South Africa","city":"grassvallei","accent_city":"Grassvallei","province":"Limpopo","lat":-24.679431,"lng":29.333148,"province_id":9},
{"country":"South Africa","city":"grass valley","accent_city":"Grass Valley","province":"Limpopo","lat":-24.679431,"lng":29.333148,"province_id":9},
{"country":"South Africa","city":"grassville","accent_city":"Grassville","province":"Free State","lat":-29.155451,"lng":26.288537,"province_id":3},
{"country":"South Africa","city":"grassy park","accent_city":"Grassy Park","province":"Western Cape","lat":-34.047195,"lng":18.498626,"province_id":11},
{"country":"South Africa","city":"gravelotte","accent_city":"Gravelotte","province":"Limpopo","lat":-23.953075,"lng":30.618951,"province_id":9},
{"country":"South Africa","city":"grayfield","accent_city":"Grayfield","province":"North West","lat":-26.9,"lng":23.616667,"province_id":10},
{"country":"South Africa","city":"great brak river","accent_city":"Great Brak River","province":"Western Cape","lat":-34.043679,"lng":22.225741,"province_id":11},
{"country":"South Africa","city":"greenfields","accent_city":"Greenfields","province":"Eastern Cape","lat":-33.033298,"lng":27.862158,"province_id":5},
{"country":"South Africa","city":"greenfontein","accent_city":"Greenfontein","province":"Eastern Cape","lat":-31.416667,"lng":25.9,"province_id":5},
{"country":"South Africa","city":"greenhaven","accent_city":"Greenhaven","province":"Western Cape","lat":-34.040869,"lng":22.209714,"province_id":11},
{"country":"South Africa","city":"greenhill","accent_city":"Greenhill","province":"KwaZulu Natal","lat":-29.827099,"lng":30.306303,"province_id":2},
{"country":"South Africa","city":"green island","accent_city":"Green Island","province":"Northern Cape","lat":-28.616667,"lng":16.483333,"province_id":8},
{"country":"South Africa","city":"greenlands","accent_city":"Greenlands","province":"Eastern Cape","lat":-33.083333,"lng":26.766667,"province_id":5},
{"country":"South Africa","city":"green point","accent_city":"Green Point","province":"Western Cape","lat":-33.910012,"lng":18.403859,"province_id":11},
{"country":"South Africa","city":"green valley","accent_city":"Green Valley","province":"Mpumalanga","lat":-24.598522,"lng":31.021159,"province_id":7},
{"country":"South Africa","city":"greenview","accent_city":"Greenview","province":"Gauteng","lat":-25.731389,"lng":28.397778,"province_id":6},
{"country":"South Africa","city":"greenwich","accent_city":"Greenwich","province":"North West","lat":-26.170523,"lng":23.110501,"province_id":10},
{"country":"South Africa","city":"greenwood park","accent_city":"Greenwood Park","province":"KwaZulu Natal","lat":-29.783333,"lng":31.016667,"province_id":2},
{"country":"South Africa","city":"gregory","accent_city":"Gregory","province":"Limpopo","lat":-22.644641,"lng":28.946264,"province_id":9},
{"country":"South Africa","city":"grey hill","accent_city":"Grey Hill","province":"Northern Cape","lat":-28.133333,"lng":23.983333,"province_id":8},
{"country":"South Africa","city":"greylingstad","accent_city":"Greylingstad","province":"Mpumalanga","lat":-26.744627,"lng":28.744426,"province_id":7},
{"country":"South Africa","city":"greys","accent_city":"Greys","province":"Free State","lat":-28.616667,"lng":28.816667,"province_id":3},
{"country":"South Africa","city":"greystone","accent_city":"Greystone","province":"Eastern Cape","lat":-31.899608,"lng":26.04517,"province_id":5},
{"country":"South Africa","city":"greystorie","accent_city":"Greystorie","province":"KwaZulu Natal","lat":-29.071943,"lng":29.798419,"province_id":2},
{"country":"South Africa","city":"greyton","accent_city":"Greyton","province":"Western Cape","lat":-34.050482,"lng":19.608844,"province_id":11},
{"country":"South Africa","city":"greytown","accent_city":"Greytown","province":"KwaZulu Natal","lat":-29.064155,"lng":30.592786,"province_id":2},
{"country":"South Africa","city":"greyville","accent_city":"Greyville","province":"KwaZulu Natal","lat":-29.833333,"lng":31,"province_id":2},
{"country":"South Africa","city":"griebdale","accent_city":"Griebdale","province":"Eastern Cape","lat":-31.483973,"lng":28.608894,"province_id":5},
{"country":"South Africa","city":"griekwastad","accent_city":"Griekwastad","province":"Northern Cape","lat":-28.851407,"lng":23.252483,"province_id":8},
{"country":"South Africa","city":"griquatown","accent_city":"Griquatown","province":"Northern Cape","lat":-28.851407,"lng":23.252483,"province_id":8},
{"country":"South Africa","city":"groblerbrug","accent_city":"Groblerbrug","province":"Limpopo","lat":-22.999394,"lng":27.945833,"province_id":9},
{"country":"South Africa","city":"groblersbrug","accent_city":"Groblersbrug","province":"Limpopo","lat":-22.999394,"lng":27.945833,"province_id":9},
{"country":"South Africa","city":"groblersdal","accent_city":"Groblersdal","province":"Mpumalanga","lat":-25.168434,"lng":29.394123,"province_id":7},
{"country":"South Africa","city":"groblershoop","accent_city":"Groblershoop","province":"Northern Cape","lat":-28.895309,"lng":21.983782,"province_id":8},
{"country":"South Africa","city":"groendal","accent_city":"Groendal","province":"Northern Cape","lat":-29.404751,"lng":22.417589,"province_id":8},
{"country":"South Africa","city":"groendal","accent_city":"Groendal","province":"Western Cape","lat":-33.892644,"lng":19.100525,"province_id":11},
{"country":"South Africa","city":"groen draai","accent_city":"Groen Draai","province":"Free State","lat":-28.433253,"lng":28.587358,"province_id":3},
{"country":"South Africa","city":"groenedal","accent_city":"Groenedal","province":"Eastern Cape","lat":-31.666667,"lng":27.366667,"province_id":5},
{"country":"South Africa","city":"groenfontein","accent_city":"Groenfontein","province":"Free State","lat":-30.072403,"lng":26.331926,"province_id":3},
{"country":"South Africa","city":"groenfontein","accent_city":"Groenfontein","province":"Eastern Cape","lat":-31.639395,"lng":26.133002,"province_id":5},
{"country":"South Africa","city":"groenfontein","accent_city":"Groenfontein","province":"Western Cape","lat":-33.108493,"lng":19.347758,"province_id":11},
{"country":"South Africa","city":"groenkloof","accent_city":"Groenkloof","province":"KwaZulu Natal","lat":-27.416667,"lng":30.283333,"province_id":2},
{"country":"South Africa","city":"groenkloof","accent_city":"Groenkloof","province":"Eastern Cape","lat":-31.780887,"lng":25.509056,"province_id":5},
{"country":"South Africa","city":"groenpoort","accent_city":"Groenpoort","province":"Free State","lat":-30.416233,"lng":26.689412,"province_id":3},
{"country":"South Africa","city":"groenpunt","accent_city":"Groenpunt","province":"Gauteng","lat":-26.826341,"lng":28.038443,"province_id":6},
{"country":"South Africa","city":"groenpunt","accent_city":"Groenpunt","province":"Western Cape","lat":-33.910012,"lng":18.403859,"province_id":11},
{"country":"South Africa","city":"groenvlakte","accent_city":"Groenvlakte","province":"Free State","lat":-30.028035,"lng":26.109107,"province_id":3},
{"country":"South Africa","city":"groenvlei","accent_city":"Groenvlei","province":"KwaZulu Natal","lat":-27.459055,"lng":30.23027,"province_id":2},
{"country":"South Africa","city":"groenvlei","accent_city":"Groenvlei","province":"Eastern Cape","lat":-31.021026,"lng":26.403782,"province_id":5},
{"country":"South Africa","city":"groenvlei","accent_city":"Groenvlei","province":"Limpopo","lat":-24.266667,"lng":27.483333,"province_id":9},
{"country":"South Africa","city":"groesbeek","accent_city":"Groesbeek","province":"Limpopo","lat":-23.866667,"lng":28.433333,"province_id":9},
{"country":"South Africa","city":"grootberg","accent_city":"Grootberg","province":"Northern Cape","lat":-30.283333,"lng":17.733333,"province_id":8},
{"country":"South Africa","city":"groot-brakrivier","accent_city":"Groot-Brakrivier","province":"Western Cape","lat":-34.043679,"lng":22.225741,"province_id":11},
{"country":"South Africa","city":"grootdam","accent_city":"Grootdam","province":"Free State","lat":-29.380768,"lng":26.920356,"province_id":3},
{"country":"South Africa","city":"grootdam","accent_city":"Grootdam","province":"Eastern Cape","lat":-31.482609,"lng":26.20689,"province_id":5},
{"country":"South Africa","city":"grootderm","accent_city":"Grootderm","province":"Northern Cape","lat":-28.528239,"lng":16.61608,"province_id":8},
{"country":"South Africa","city":"groot drakenstein","accent_city":"Groot Drakenstein","province":"Mpumalanga","lat":-26.05,"lng":29.683333,"province_id":7},
{"country":"South Africa","city":"grootdrink","accent_city":"Grootdrink","province":"Northern Cape","lat":-26.494937,"lng":22.278767,"province_id":8},
{"country":"South Africa","city":"groot-elandsvlei","accent_city":"Groot-Elandsvlei","province":"Gauteng","lat":-26.139916,"lng":27.6703,"province_id":6},
{"country":"South Africa","city":"grootfontein","accent_city":"Grootfontein","province":"Free State","lat":-29.63352,"lng":26.296903,"province_id":3},
{"country":"South Africa","city":"grootfontein","accent_city":"Grootfontein","province":"Western Cape","lat":-33,"lng":18.2,"province_id":11},
{"country":"South Africa","city":"grootgeluk","accent_city":"Grootgeluk","province":"Free State","lat":-29.449312,"lng":25.98163,"province_id":3},
{"country":"South Africa","city":"grootgewaagd","accent_city":"Grootgewaagd","province":"Mpumalanga","lat":-26.661048,"lng":29.859672,"province_id":7},
{"country":"South Africa","city":"groot highlands","accent_city":"Groot Highlands","province":"Free State","lat":-29.85,"lng":26.55,"province_id":3},
{"country":"South Africa","city":"groothoek","accent_city":"Groothoek","province":"Free State","lat":-29.283333,"lng":26.866667,"province_id":3},
{"country":"South Africa","city":"groothoek","accent_city":"Groothoek","province":"Limpopo","lat":-23.287147,"lng":29.317469,"province_id":9},
{"country":"South Africa","city":"groot-jongensfontein","accent_city":"Groot-Jongensfontein","province":"Western Cape","lat":-34.42562,"lng":21.33995,"province_id":11},
{"country":"South Africa","city":"grootjongensfonteinstrand","accent_city":"Grootjongensfonteinstrand","province":"Western Cape","lat":-34.42562,"lng":21.33995,"province_id":11},
{"country":"South Africa","city":"grootkloof","accent_city":"Grootkloof","province":"KwaZulu Natal","lat":-27.416667,"lng":30.283333,"province_id":2},
{"country":"South Africa","city":"groot-marico","accent_city":"Groot-Marico","province":"North West","lat":-25.597005,"lng":26.417238,"province_id":10},
{"country":"South Africa","city":"groot matjiesfontein","accent_city":"Groot Matjiesfontein","province":"Western Cape","lat":-30.516667,"lng":18.533333,"province_id":11},
{"country":"South Africa","city":"groot mier","accent_city":"Groot Mier","province":"Northern Cape","lat":-26.74213,"lng":20.33376,"province_id":8},
{"country":"South Africa","city":"grootmis","accent_city":"Grootmis","province":"Northern Cape","lat":-29.651125,"lng":17.084218,"province_id":8},
{"country":"South Africa","city":"grootmist","accent_city":"Grootmist","province":"Northern Cape","lat":-29.651125,"lng":17.084218,"province_id":8},
{"country":"South Africa","city":"grootpan","accent_city":"Grootpan","province":"Mpumalanga","lat":-25.917957,"lng":29.928743,"province_id":7},
{"country":"South Africa","city":"grootpan","accent_city":"Grootpan","province":"Limpopo","lat":-22.765199,"lng":28.821927,"province_id":9},
{"country":"South Africa","city":"grootrivierdrif","accent_city":"Grootrivierdrif","province":"Eastern Cape","lat":-33.416667,"lng":24.666667,"province_id":5},
{"country":"South Africa","city":"grootrivier","accent_city":"Grootrivier","province":"Western Cape","lat":-33.383333,"lng":19.5,"province_id":11},
{"country":"South Africa","city":"groot-samenkomst","accent_city":"Groot-Samenkomst","province":"Eastern Cape","lat":-32.181022,"lng":25.275928,"province_id":5},
{"country":"South Africa","city":"grootschuur","accent_city":"Grootschuur","province":"Eastern Cape","lat":-31.743034,"lng":26.395126,"province_id":5},
{"country":"South Africa","city":"groot silwermyn","accent_city":"Groot Silwermyn","province":"Western Cape","lat":-34.109667,"lng":18.405329,"province_id":11},
{"country":"South Africa","city":"grootspruit","accent_city":"Grootspruit","province":"Mpumalanga","lat":-27.033333,"lng":30.433333,"province_id":7},
{"country":"South Africa","city":"groot strydpoort","accent_city":"Groot Strydpoort","province":"Eastern Cape","lat":-31.381062,"lng":25.947006,"province_id":5},
{"country":"South Africa","city":"groot-suurfontein","accent_city":"Groot-Suurfontein","province":"Free State","lat":-30.337475,"lng":25.811647,"province_id":3},
{"country":"South Africa","city":"groot umgazi","accent_city":"Groot Umgazi","province":"Eastern Cape","lat":-31.614246,"lng":29.42367,"province_id":5},
{"country":"South Africa","city":"groot-umngazi","accent_city":"Groot-Umngazi","province":"Eastern Cape","lat":-31.614246,"lng":29.42367,"province_id":5},
{"country":"South Africa","city":"grootverlang","accent_city":"Grootverlang","province":"Free State","lat":-29.600608,"lng":26.340888,"province_id":3},
{"country":"South Africa","city":"grootvlei","accent_city":"Grootvlei","province":"Free State","lat":-30.334147,"lng":26.707886,"province_id":3},
{"country":"South Africa","city":"grootvlei","accent_city":"Grootvlei","province":"Eastern Cape","lat":-31.343612,"lng":25.694423,"province_id":5},
{"country":"South Africa","city":"grootvlei","accent_city":"Grootvlei","province":"Mpumalanga","lat":-26.762469,"lng":28.483823,"province_id":7},
{"country":"South Africa","city":"grootwater","accent_city":"Grootwater","province":"Free State","lat":-29.653773,"lng":26.312565,"province_id":3},
{"country":"South Africa","city":"groot witberg","accent_city":"Groot Witberg","province":"Northern Cape","lat":-29.185871,"lng":22.353116,"province_id":8},
{"country":"South Africa","city":"groot zwaarmoed","accent_city":"Groot Zwaarmoed","province":"Western Cape","lat":-33.366667,"lng":19.483333,"province_id":11},
{"country":"South Africa","city":"grosvenor","accent_city":"Grosvenor","province":"KwaZulu Natal","lat":-29.914416,"lng":31.008076,"province_id":2},
{"country":"South Africa","city":"groutville","accent_city":"Groutville","province":"KwaZulu Natal","lat":-29.389426,"lng":31.246065,"province_id":2},
{"country":"South Africa","city":"groxozayo","accent_city":"Groxozayo","province":"Eastern Cape","lat":-32.566667,"lng":28.483333,"province_id":5},
{"country":"South Africa","city":"gruisklip","accent_city":"Gruisklip","province":"Eastern Cape","lat":-31.612843,"lng":25.771031,"province_id":5},
{"country":"South Africa","city":"gruisplaats","accent_city":"Gruisplaats","province":"Free State","lat":-27.25,"lng":29.166667,"province_id":3},
{"country":"South Africa","city":"grypoort","accent_city":"Grypoort","province":"Northern Cape","lat":-27.848164,"lng":23.488585,"province_id":8},
{"country":"South Africa","city":"grysdal","accent_city":"Grysdal","province":"Free State","lat":-30.133894,"lng":26.82461,"province_id":3},
{"country":"South Africa","city":"guba","accent_city":"Guba","province":"Eastern Cape","lat":-31.562801,"lng":27.366575,"province_id":5},
{"country":"South Africa","city":"gubahoek","accent_city":"Gubahoek","province":"Eastern Cape","lat":-31.516423,"lng":27.306259,"province_id":5},
{"country":"South Africa","city":"gubeni","accent_city":"Gubeni","province":"Eastern Cape","lat":-32.733333,"lng":28.083333,"province_id":5},
{"country":"South Africa","city":"gubenxa","accent_city":"Gubenxa","province":"Eastern Cape","lat":-31.35446,"lng":28.148033,"province_id":5},
{"country":"South Africa","city":"gubenxa kroon","accent_city":"Gubenxa Kroon","province":"Eastern Cape","lat":-31.35446,"lng":28.148033,"province_id":5},
{"country":"South Africa","city":"gubhuzi","accent_city":"Gubhuzi","province":"Eastern Cape","lat":-30.631194,"lng":28.968407,"province_id":5},
{"country":"South Africa","city":"gubuzi","accent_city":"Gubuzi","province":"Eastern Cape","lat":-30.740639,"lng":29.145715,"province_id":5},
{"country":"South Africa","city":"gudeka","accent_city":"Gudeka","province":"Eastern Cape","lat":-31.121759,"lng":29.332161,"province_id":5},
{"country":"South Africa","city":"guduse","accent_city":"Guduse","province":"Eastern Cape","lat":-31.900911,"lng":28.55746,"province_id":5},
{"country":"South Africa","city":"guguletu","accent_city":"Guguletu","province":"Western Cape","lat":-33.983511,"lng":18.570596,"province_id":11},
{"country":"South Africa","city":"gugwini","accent_city":"Gugwini","province":"Eastern Cape","lat":-30.501519,"lng":29.940445,"province_id":5},
{"country":"South Africa","city":"guinesses","accent_city":"Guinesses","province":"Free State","lat":-30.189079,"lng":26.994412,"province_id":3},
{"country":"South Africa","city":"gulandoda","accent_city":"Gulandoda","province":"Eastern Cape","lat":-31.59792,"lng":28.035232,"province_id":5},
{"country":"South Africa","city":"guleka","accent_city":"Guleka","province":"KwaZulu Natal","lat":-30.333102,"lng":30.500248,"province_id":2},
{"country":"South Africa","city":"guliga","accent_city":"Guliga","province":"KwaZulu Natal","lat":-30.333102,"lng":30.500248,"province_id":2},
{"country":"South Africa","city":"gulu","accent_city":"Gulu","province":"Eastern Cape","lat":-33.114725,"lng":27.725931,"province_id":5},
{"country":"South Africa","city":"gumdale","accent_city":"Gumdale","province":"Eastern Cape","lat":-31.167539,"lng":26.55582,"province_id":5},
{"country":"South Africa","city":"gume","accent_city":"Gume","province":"Eastern Cape","lat":-32.333333,"lng":28.816667,"province_id":5},
{"country":"South Africa","city":"gumzana","accent_city":"Gumzana","province":"Eastern Cape","lat":-31.025883,"lng":29.984492,"province_id":5},
{"country":"South Africa","city":"gungululu","accent_city":"Gungululu","province":"Eastern Cape","lat":-31.429524,"lng":28.860576,"province_id":5},
{"country":"South Africa","city":"gunjana","accent_city":"Gunjana","province":"KwaZulu Natal","lat":-28.644495,"lng":30.351765,"province_id":2},
{"country":"South Africa","city":"gura","accent_city":"Gura","province":"Eastern Cape","lat":-31.028961,"lng":28.83599,"province_id":5},
{"country":"South Africa","city":"guse","accent_city":"Guse","province":"Eastern Cape","lat":-31.82693,"lng":27.465655,"province_id":5},
{"country":"South Africa","city":"gusenzamo","accent_city":"Gusenzamo","province":"KwaZulu Natal","lat":-28.17504,"lng":31.654167,"province_id":2},
{"country":"South Africa","city":"guthrie","accent_city":"Guthrie","province":"Mpumalanga","lat":-25.6,"lng":30.933333,"province_id":7},
{"country":"South Africa","city":"gutshwa","accent_city":"Gutshwa","province":"Mpumalanga","lat":-25.266667,"lng":31.2,"province_id":7},
{"country":"South Africa","city":"gutshwe","accent_city":"Gutshwe","province":"Mpumalanga","lat":-25.299952,"lng":31.147185,"province_id":7},
{"country":"South Africa","city":"guwini","accent_city":"Guwini","province":"Eastern Cape","lat":-30.735568,"lng":29.436895,"province_id":5},
{"country":"South Africa","city":"guxuxu","accent_city":"Guxuxu","province":"Eastern Cape","lat":-32.319148,"lng":28.557515,"province_id":5},
{"country":"South Africa","city":"gwadana","accent_city":"Gwadana","province":"Eastern Cape","lat":-32.214563,"lng":28.292797,"province_id":5},
{"country":"South Africa","city":"gwadu","accent_city":"Gwadu","province":"Eastern Cape","lat":-32.183333,"lng":28.616667,"province_id":5},
{"country":"South Africa","city":"gwalali","accent_city":"Gwalali","province":"Limpopo","lat":-22.4,"lng":31.3,"province_id":9},
{"country":"South Africa","city":"gwalana","accent_city":"Gwalana","province":"Eastern Cape","lat":-33.271336,"lng":27.112032,"province_id":5},
{"country":"South Africa","city":"gwarriehoek","accent_city":"Gwarriehoek","province":"Limpopo","lat":-24.733333,"lng":27.483333,"province_id":9},
{"country":"South Africa","city":"gwentham","accent_city":"Gwentham","province":"Free State","lat":-29.008988,"lng":26.214247,"province_id":3},
{"country":"South Africa","city":"gweta","accent_city":"Gweta","province":"Mpumalanga","lat":-24.909926,"lng":31.039323,"province_id":7},
{"country":"South Africa","city":"gwili gwili","accent_city":"Gwili Gwili","province":"Eastern Cape","lat":-32.680489,"lng":27.20232,"province_id":5},
{"country":"South Africa","city":"gxaha","accent_city":"Gxaha","province":"Eastern Cape","lat":-32.599707,"lng":28.377149,"province_id":5},
{"country":"South Africa","city":"gxaku","accent_city":"Gxaku","province":"Eastern Cape","lat":-30.683333,"lng":28.633333,"province_id":5},
{"country":"South Africa","city":"gxara","accent_city":"Gxara","province":"Eastern Cape","lat":-31.999355,"lng":28.288117,"province_id":5},
{"country":"South Africa","city":"gxara trading station","accent_city":"Gxara Trading Station","province":"Eastern Cape","lat":-32.599707,"lng":28.377149,"province_id":5},
{"country":"South Africa","city":"gxokoza","accent_city":"Gxokoza","province":"Eastern Cape","lat":-31.587855,"lng":29.268228,"province_id":5},
{"country":"South Africa","city":"gxulu","accent_city":"Gxulu","province":"Eastern Cape","lat":-33.114725,"lng":27.725931,"province_id":5},
{"country":"South Africa","city":"gxwaleni","accent_city":"Gxwaleni","province":"Eastern Cape","lat":-30.738915,"lng":29.528272,"province_id":5},
{"country":"South Africa","city":"haakdoorndraai","accent_city":"Haakdoorndraai","province":"Mpumalanga","lat":-25.187978,"lng":29.565522,"province_id":7},
{"country":"South Africa","city":"haakdoorn","accent_city":"Haakdoorn","province":"Northern Cape","lat":-28.983333,"lng":22.3,"province_id":8},
{"country":"South Africa","city":"haakdoringdraai","accent_city":"Haakdoringdraai","province":"Mpumalanga","lat":-25.187978,"lng":29.565522,"province_id":7},
{"country":"South Africa","city":"haarlem","accent_city":"Haarlem","province":"Eastern Cape","lat":-31.044591,"lng":26.569909,"province_id":5},
{"country":"South Africa","city":"haarlem","accent_city":"Haarlem","province":"Western Cape","lat":-33.73302,"lng":23.342632,"province_id":11},
{"country":"South Africa","city":"haasfonteindorings","accent_city":"Haasfonteindorings","province":"Eastern Cape","lat":-31.956656,"lng":26.353478,"province_id":5},
{"country":"South Africa","city":"haaskraal","accent_city":"Haaskraal","province":"North West","lat":-26.768035,"lng":27.034809,"province_id":10},
{"country":"South Africa","city":"haaspoort","accent_city":"Haaspoort","province":"Eastern Cape","lat":-31.157645,"lng":26.112934,"province_id":5},
{"country":"South Africa","city":"hackney and cibini","accent_city":"Hackney and Cibini","province":"Eastern Cape","lat":-32.333333,"lng":26.65,"province_id":5},
{"country":"South Africa","city":"hackney","accent_city":"Hackney","province":"Eastern Cape","lat":-32.317199,"lng":26.645061,"province_id":5},
{"country":"South Africa","city":"hadiaho","accent_city":"Hadiaho","province":"Eastern Cape","lat":-30.266667,"lng":28.583333,"province_id":5},
{"country":"South Africa","city":"hadi","accent_city":"Hadi","province":"Eastern Cape","lat":-31.5503,"lng":28.8258,"province_id":5},
{"country":"South Africa","city":"haenerstburg","accent_city":"Haenerstburg","province":"Limpopo","lat":-23.944368,"lng":29.944866,"province_id":9},
{"country":"South Africa","city":"haenertsburg","accent_city":"Haenertsburg","province":"Limpopo","lat":-23.944368,"lng":29.944866,"province_id":9},
{"country":"South Africa","city":"ha-folovhodwe","accent_city":"Ha-Folovhodwe","province":"Limpopo","lat":-22.589149,"lng":30.425048,"province_id":9},
{"country":"South Africa","city":"haga-haga bay","accent_city":"Haga-Haga Bay","province":"Eastern Cape","lat":-32.763495,"lng":28.246455,"province_id":5},
{"country":"South Africa","city":"haga-haga","accent_city":"Haga-Haga","province":"Eastern Cape","lat":-32.763495,"lng":28.246455,"province_id":5},
{"country":"South Africa","city":"hagesdam","accent_city":"Hagesdam","province":"Free State","lat":-29.358063,"lng":25.783446,"province_id":3},
{"country":"South Africa","city":"haisaka","accent_city":"Haisaka","province":"Eastern Cape","lat":-30.25,"lng":28.583333,"province_id":5},
{"country":"South Africa","city":"hakboslaagte","accent_city":"Hakboslaagte","province":"North West","lat":-26.327113,"lng":26.152982,"province_id":10},
{"country":"South Africa","city":"ha-lambani","accent_city":"Ha-Lambani","province":"Limpopo","lat":-22.720273,"lng":30.831499,"province_id":9},
{"country":"South Africa","city":"halfpadrivier","accent_city":"Halfpadrivier","province":"Northern Cape","lat":-30.516667,"lng":20.016667,"province_id":8},
{"country":"South Africa","city":"halfway house","accent_city":"Halfway House","province":"Gauteng","lat":-25.997137,"lng":28.129919,"province_id":6},
{"country":"South Africa","city":"halifax","accent_city":"Halifax","province":"North West","lat":-26.208188,"lng":23.226071,"province_id":10},
{"country":"South Africa","city":"hallack rock","accent_city":"Hallack Rock","province":"Eastern Cape","lat":-33.966667,"lng":25.6,"province_id":5},
{"country":"South Africa","city":"halseton","accent_city":"Halseton","province":"Eastern Cape","lat":-31.533333,"lng":26.816667,"province_id":5},
{"country":"South Africa","city":"ha-madala","accent_city":"Ha-Madala","province":"Limpopo","lat":-22.850193,"lng":30.281792,"province_id":9},
{"country":"South Africa","city":"ha-madodonga","accent_city":"Ha-Madodonga","province":"Limpopo","lat":-23.091312,"lng":29.6793,"province_id":9},
{"country":"South Africa","city":"ha-magau","accent_city":"Ha-Magau","province":"Limpopo","lat":-23.132706,"lng":29.848093,"province_id":9},
{"country":"South Africa","city":"ha-magoro","accent_city":"Ha-Magoro","province":"Limpopo","lat":-23.300082,"lng":30.315696,"province_id":9},
{"country":"South Africa","city":"ha-majoro","accent_city":"Ha-Majoro","province":"Eastern Cape","lat":-30.348432,"lng":28.456346,"province_id":5},
{"country":"South Africa","city":"hamakuya","accent_city":"Hamakuya","province":"Limpopo","lat":-22.636789,"lng":30.837469,"province_id":9},
{"country":"South Africa","city":"ha-mamuhoyi","accent_city":"Ha-Mamuhoyi","province":"Limpopo","lat":-22.870657,"lng":30.121835,"province_id":9},
{"country":"South Africa","city":"ha-manavhela","accent_city":"Ha-Manavhela","province":"Limpopo","lat":-23.066667,"lng":29.616667,"province_id":9},
{"country":"South Africa","city":"ha-mantsha","accent_city":"Ha-Mantsha","province":"Limpopo","lat":-23.07904,"lng":29.774448,"province_id":9},
{"country":"South Africa","city":"ha-matsheketsheke","accent_city":"Ha-Matsheketsheke","province":"Limpopo","lat":-22.73424,"lng":30.408524,"province_id":9},
{"country":"South Africa","city":"ha-matsika","accent_city":"Ha-Matsika","province":"Limpopo","lat":-22.858894,"lng":30.693608,"province_id":9},
{"country":"South Africa","city":"ha-mavhunga","accent_city":"Ha-Mavhunga","province":"Limpopo","lat":-22.924925,"lng":30.116817,"province_id":9},
{"country":"South Africa","city":"hamburg","accent_city":"Hamburg","province":"Eastern Cape","lat":-33.284099,"lng":27.452699,"province_id":5},
{"country":"South Africa","city":"hamewith","accent_city":"Hamewith","province":"KwaZulu Natal","lat":-28.943796,"lng":31.719079,"province_id":2},
{"country":"South Africa","city":"hamilton","accent_city":"Hamilton","province":"Free State","lat":-30.366147,"lng":26.64944,"province_id":3},
{"country":"South Africa","city":"hammanskraal","accent_city":"Hammanskraal","province":"North West","lat":-25.40892,"lng":28.286996,"province_id":10},
{"country":"South Africa","city":"hammarsdale","accent_city":"Hammarsdale","province":"KwaZulu Natal","lat":-29.800827,"lng":30.651961,"province_id":2},
{"country":"South Africa","city":"hammersdale","accent_city":"Hammersdale","province":"KwaZulu Natal","lat":-29.800827,"lng":30.651961,"province_id":2},
{"country":"South Africa","city":"ha-mothibisi","accent_city":"Ha-Mothibisi","province":"Eastern Cape","lat":-30.36058,"lng":28.35087,"province_id":5},
{"country":"South Africa","city":"hamsini","accent_city":"Hamsini","province":"Eastern Cape","lat":-31.794713,"lng":29.084882,"province_id":5},
{"country":"South Africa","city":"ha-mubua","accent_city":"Ha-Mubua","province":"Limpopo","lat":-23.1,"lng":29.733333,"province_id":9},
{"country":"South Africa","city":"hanakoe","accent_city":"Hanakoe","province":"Free State","lat":-29.45707,"lng":26.986696,"province_id":3},
{"country":"South Africa","city":"hananwa","accent_city":"Hananwa","province":"Limpopo","lat":-23.083333,"lng":28.95,"province_id":9},
{"country":"South Africa","city":"hanglip","accent_city":"Hanglip","province":"Limpopo","lat":-24.216667,"lng":28.766667,"province_id":9},
{"country":"South Africa","city":"haningfontein","accent_city":"Haningfontein","province":"Limpopo","lat":-24.45,"lng":28.266667,"province_id":9},
{"country":"South Africa","city":"hankey","accent_city":"Hankey","province":"Eastern Cape","lat":-33.833079,"lng":24.883586,"province_id":5},
{"country":"South Africa","city":"hannskop","accent_city":"Hannskop","province":"Western Cape","lat":-33.45,"lng":23.216667,"province_id":11},
{"country":"South Africa","city":"ha-nokholoko","accent_city":"Ha-Nokholoko","province":"Eastern Cape","lat":-30.616638,"lng":28.228445,"province_id":5},
{"country":"South Africa","city":"hanover","accent_city":"Hanover","province":"Eastern Cape","lat":-32.818993,"lng":27.480597,"province_id":5},
{"country":"South Africa","city":"hanover","accent_city":"Hanover","province":"Mpumalanga","lat":-26.797338,"lng":29.777589,"province_id":7},
{"country":"South Africa","city":"hanover","accent_city":"Hanover","province":"Northern Cape","lat":-31.06856,"lng":24.442516,"province_id":8},
{"country":"South Africa","city":"hanover park","accent_city":"Hanover Park","province":"Western Cape","lat":-33.994609,"lng":18.529775,"province_id":11},
{"country":"South Africa","city":"hanover road","accent_city":"Hanover Road","province":"Northern Cape","lat":-30.952372,"lng":24.53683,"province_id":8},
{"country":"South Africa","city":"hanoverweg","accent_city":"Hanoverweg","province":"Northern Cape","lat":-30.952372,"lng":24.53683,"province_id":8},
{"country":"South Africa","city":"hanslaagte","accent_city":"Hanslaagte","province":"Mpumalanga","lat":-24.933333,"lng":30.2,"province_id":7},
{"country":"South Africa","city":"hans masibislokasie","accent_city":"Hans Masibislokasie","province":"Limpopo","lat":-23.983333,"lng":28.833333,"province_id":9},
{"country":"South Africa","city":"hansonia","accent_city":"Hansonia","province":"KwaZulu Natal","lat":-29.7,"lng":29.716667,"province_id":2},
{"country":"South Africa","city":"hans se kaalte","accent_city":"Hans se Kaalte","province":"Limpopo","lat":-24.45,"lng":28.35,"province_id":9},
{"country":"South Africa","city":"happy home","accent_city":"Happy Home","province":"Eastern Cape","lat":-32.854591,"lng":28.07809,"province_id":5},
{"country":"South Africa","city":"happy rest","accent_city":"Happy Rest","province":"Limpopo","lat":-23.033333,"lng":29.733333,"province_id":9},
{"country":"South Africa","city":"happy valley","accent_city":"Happy Valley","province":"Eastern Cape","lat":-32.477756,"lng":27.074449,"province_id":5},
{"country":"South Africa","city":"happy valley","accent_city":"Happy Valley","province":"Northern Cape","lat":-29.573955,"lng":22.178562,"province_id":8},
{"country":"South Africa","city":"happy valley","accent_city":"Happy Valley","province":"Western Cape","lat":-33.933406,"lng":20.074828,"province_id":11},
{"country":"South Africa","city":"ha-qhadi","accent_city":"Ha-Qhadi","province":"Eastern Cape","lat":-30.613586,"lng":28.468414,"province_id":5},
{"country":"South Africa","city":"ha-rabali","accent_city":"Ha-Rabali","province":"Limpopo","lat":-22.878584,"lng":30.093927,"province_id":9},
{"country":"South Africa","city":"ha-radali","accent_city":"Ha-Radali","province":"Limpopo","lat":-22.908299,"lng":30.437232,"province_id":9},
{"country":"South Africa","city":"ha-ramahantsha","accent_city":"Ha-Ramahantsha","province":"Limpopo","lat":-23.106352,"lng":29.763354,"province_id":9},
{"country":"South Africa","city":"ha-ramarolong","accent_city":"Ha-Ramarolong","province":"Eastern Cape","lat":-30.238564,"lng":28.413374,"province_id":5},
{"country":"South Africa","city":"ha-rankopane","accent_city":"Ha-Rankopane","province":"Free State","lat":-28.557022,"lng":28.83464,"province_id":3},
{"country":"South Africa","city":"harantsatsa","accent_city":"Harantsatsa","province":"Free State","lat":-29.150096,"lng":26.922,"province_id":3},
{"country":"South Africa","city":"harburg","accent_city":"Harburg","province":"KwaZulu Natal","lat":-29.410314,"lng":30.736979,"province_id":2},
{"country":"South Africa","city":"hardale","accent_city":"Hardale","province":"Eastern Cape","lat":-31.166216,"lng":28.476003,"province_id":5},
{"country":"South Africa","city":"hardekraaltjie","accent_city":"Hardekraaltjie","province":"Limpopo","lat":-23.524965,"lng":27.215756,"province_id":9},
{"country":"South Africa","city":"harden heights","accent_city":"Harden Heights","province":"KwaZulu Natal","lat":-29.265009,"lng":30.620493,"province_id":2},
{"country":"South Africa","city":"hardeveld","accent_city":"Hardeveld","province":"Eastern Cape","lat":-31.683333,"lng":27.35,"province_id":5},
{"country":"South Africa","city":"harding","accent_city":"Harding","province":"KwaZulu Natal","lat":-30.576429,"lng":29.884006,"province_id":2},
{"country":"South Africa","city":"hardop","accent_city":"Hardop","province":"Eastern Cape","lat":-31.733333,"lng":25.933333,"province_id":5},
{"country":"South Africa","city":"harefield","accent_city":"Harefield","province":"Eastern Cape","lat":-32.678884,"lng":28.005673,"province_id":5},
{"country":"South Africa","city":"harkerville","accent_city":"Harkerville","province":"Western Cape","lat":-34.037076,"lng":23.237533,"province_id":11},
{"country":"South Africa","city":"harmonie","accent_city":"Harmonie","province":"Free State","lat":-27.555036,"lng":27.643915,"province_id":3},
{"country":"South Africa","city":"harmonie","accent_city":"Harmonie","province":"Eastern Cape","lat":-31.202501,"lng":25.782556,"province_id":5},
{"country":"South Africa","city":"harmonie","accent_city":"Harmonie","province":"Limpopo","lat":-23.803647,"lng":28.894199,"province_id":9},
{"country":"South Africa","city":"harmony","accent_city":"Harmony","province":"Limpopo","lat":-23.090435,"lng":29.848545,"province_id":9},
{"country":"South Africa","city":"harmony","accent_city":"Harmony","province":"Western Cape","lat":-34.116667,"lng":18.383333,"province_id":11},
{"country":"South Africa","city":"harpington","accent_city":"Harpington","province":"North West","lat":-26.78636,"lng":27.065584,"province_id":10},
{"country":"South Africa","city":"harrismith","accent_city":"Harrismith","province":"Free State","lat":-28.272758,"lng":29.129462,"province_id":3},
{"country":"South Africa","city":"harrison","accent_city":"Harrison","province":"KwaZulu Natal","lat":-29.733333,"lng":30.633333,"province_id":2},
{"country":"South Africa","city":"harrow","accent_city":"Harrow","province":"North West","lat":-26.312629,"lng":23.234459,"province_id":10},
{"country":"South Africa","city":"hartbeesbult","accent_city":"Hartbeesbult","province":"Limpopo","lat":-24.49282,"lng":27.418885,"province_id":9},
{"country":"South Africa","city":"hartbeesfontein","accent_city":"Hartbeesfontein","province":"Free State","lat":-30.14707,"lng":26.14397,"province_id":3},
{"country":"South Africa","city":"hartbeesfontein","accent_city":"Hartbeesfontein","province":"Mpumalanga","lat":-26.918545,"lng":29.676599,"province_id":7},
{"country":"South Africa","city":"hartbeesfontein","accent_city":"Hartbeesfontein","province":"North West","lat":-26.765659,"lng":26.420241,"province_id":10},
{"country":"South Africa","city":"hartbeesnek","accent_city":"Hartbeesnek","province":"Eastern Cape","lat":-31.3,"lng":26.15,"province_id":5},
{"country":"South Africa","city":"hartbeespoort","accent_city":"Hartbeespoort","province":"North West","lat":-25.733333,"lng":27.85,"province_id":10},
{"country":"South Africa","city":"hartbeestfontein","accent_city":"Hartbeestfontein","province":"Limpopo","lat":-24.484091,"lng":27.736911,"province_id":9},
{"country":"South Africa","city":"hart dale","accent_city":"Hart Dale","province":"Eastern Cape","lat":-31.379367,"lng":28.269888,"province_id":5},
{"country":"South Africa","city":"hartebeesfontein","accent_city":"Hartebeesfontein","province":"Free State","lat":-30.19654,"lng":26.41281,"province_id":3},
{"country":"South Africa","city":"hartebeesfontein","accent_city":"Hartebeesfontein","province":"Eastern Cape","lat":-31.633333,"lng":26.166667,"province_id":5},
{"country":"South Africa","city":"hartebeesfontein","accent_city":"Hartebeesfontein","province":"Limpopo","lat":-24.561515,"lng":28.076197,"province_id":9},
{"country":"South Africa","city":"hartebeesfontein","accent_city":"Hartebeesfontein","province":"North West","lat":-26.889675,"lng":26.806962,"province_id":10},
{"country":"South Africa","city":"hartebeeskop","accent_city":"Hartebeeskop","province":"Mpumalanga","lat":-26.183333,"lng":30.933333,"province_id":7},
{"country":"South Africa","city":"hartebeeskraal","accent_city":"Hartebeeskraal","province":"Western Cape","lat":-33.767299,"lng":19.003749,"province_id":11},
{"country":"South Africa","city":"hartebeesnek","accent_city":"Hartebeesnek","province":"Eastern Cape","lat":-31.966667,"lng":26.7,"province_id":5},
{"country":"South Africa","city":"hartebeespoort","accent_city":"Hartebeespoort","province":"Limpopo","lat":-24.514489,"lng":28.084703,"province_id":9},
{"country":"South Africa","city":"hartebeesrivier","accent_city":"Hartebeesrivier","province":"Western Cape","lat":-34.366667,"lng":19.516667,"province_id":11},
{"country":"South Africa","city":"hartebeestfontein","accent_city":"Hartebeestfontein","province":"North West","lat":-26.765659,"lng":26.420241,"province_id":10},
{"country":"South Africa","city":"hartebeestkop","accent_city":"Hartebeestkop","province":"Mpumalanga","lat":-26.183333,"lng":30.933333,"province_id":7},
{"country":"South Africa","city":"hartebeestkraal","accent_city":"Hartebeestkraal","province":"Western Cape","lat":-33.767299,"lng":19.003749,"province_id":11},
{"country":"South Africa","city":"hartebeestpoort","accent_city":"Hartebeestpoort","province":"North West","lat":-25.733333,"lng":27.85,"province_id":10},
{"country":"South Africa","city":"hartebeest rivier","accent_city":"Hartebeest Rivier","province":"Western Cape","lat":-34.366667,"lng":19.516667,"province_id":11},
{"country":"South Africa","city":"hartebeestspruit","accent_city":"Hartebeestspruit","province":"Mpumalanga","lat":-26.7,"lng":30.15,"province_id":7},
{"country":"South Africa","city":"hartebeest vlakte","accent_city":"Hartebeest Vlakte","province":"Northern Cape","lat":-28.75,"lng":21.566667,"province_id":8},
{"country":"South Africa","city":"hartelus","accent_city":"Hartelus","province":"Mpumalanga","lat":-25.266667,"lng":29.833333,"province_id":7},
{"country":"South Africa","city":"hartenbos","accent_city":"Hartenbos","province":"Western Cape","lat":-34.130523,"lng":22.112901,"province_id":11},
{"country":"South Africa","city":"hartlea","accent_city":"Hartlea","province":"KwaZulu Natal","lat":-29.9,"lng":29.383333,"province_id":2},
{"country":"South Africa","city":"hartsdale","accent_city":"Hartsdale","province":"Eastern Cape","lat":-31.379367,"lng":28.269888,"province_id":5},
{"country":"South Africa","city":"hartsenbergfontein","accent_city":"Hartsenbergfontein","province":"Gauteng","lat":-26.397421,"lng":27.956029,"province_id":6},
{"country":"South Africa","city":"harts river","accent_city":"Harts River","province":"North West","lat":-26.8,"lng":25.55,"province_id":10},
{"country":"South Africa","city":"hartsrivier","accent_city":"Hartsrivier","province":"North West","lat":-26.8,"lng":25.55,"province_id":10},
{"country":"South Africa","city":"hartswater","accent_city":"Hartswater","province":"Northern Cape","lat":-27.749639,"lng":24.797115,"province_id":8},
{"country":"South Africa","city":"hartzenbergfontein","accent_city":"Hartzenbergfontein","province":"Gauteng","lat":-26.397421,"lng":27.956029,"province_id":6},
{"country":"South Africa","city":"hasana","accent_city":"Hasana","province":"Limpopo","lat":-23.090954,"lng":30.477819,"province_id":9},
{"country":"South Africa","city":"ha-sefoko","accent_city":"Ha-Sefoko","province":"Eastern Cape","lat":-30.404078,"lng":28.360523,"province_id":5},
{"country":"South Africa","city":"hasetati","accent_city":"Hasetati","province":"Eastern Cape","lat":-30.454433,"lng":28.516239,"province_id":5},
{"country":"South Africa","city":"hatchleydene","accent_city":"Hatchleydene","province":"Eastern Cape","lat":-32.643075,"lng":28.166121,"province_id":5},
{"country":"South Africa","city":"hatchley","accent_city":"Hatchley","province":"Eastern Cape","lat":-32.643075,"lng":28.166121,"province_id":5},
{"country":"South Africa","city":"hatfield","accent_city":"Hatfield","province":"Gauteng","lat":-25.749728,"lng":28.243141,"province_id":6},
{"country":"South Africa","city":"hatherley","accent_city":"Hatherley","province":"Gauteng","lat":-25.733333,"lng":28.366667,"province_id":6},
{"country":"South Africa","city":"hatherly","accent_city":"Hatherly","province":"Gauteng","lat":-25.733333,"lng":28.366667,"province_id":6},
{"country":"South Africa","city":"ha-tlhakanelo","accent_city":"Ha-Tlhakanelo","province":"Eastern Cape","lat":-30.240377,"lng":28.435974,"province_id":5},
{"country":"South Africa","city":"hattingspruit","accent_city":"Hattingspruit","province":"KwaZulu Natal","lat":-28.079052,"lng":30.125204,"province_id":2},
{"country":"South Africa","city":"hauptsrus","accent_city":"Hauptsrus","province":"North West","lat":-26.55,"lng":26.283333,"province_id":10},
{"country":"South Africa","city":"hauptsrust","accent_city":"Hauptsrust","province":"North West","lat":-26.55,"lng":26.283333,"province_id":10},
{"country":"South Africa","city":"hawston","accent_city":"Hawston","province":"Western Cape","lat":-34.386345,"lng":19.130989,"province_id":11},
{"country":"South Africa","city":"hayfield","accent_city":"Hayfield","province":"Free State","lat":-29.098734,"lng":26.942266,"province_id":3},
{"country":"South Africa","city":"hay paddock","accent_city":"Hay Paddock","province":"KwaZulu Natal","lat":-29.616667,"lng":30.416667,"province_id":2},
{"country":"South Africa","city":"hazeldene","accent_city":"Hazeldene","province":"KwaZulu Natal","lat":-30.508197,"lng":30.529343,"province_id":2},
{"country":"South Africa","city":"hazeldene","accent_city":"Hazeldene","province":"Eastern Cape","lat":-31.963123,"lng":25.690542,"province_id":5},
{"country":"South Africa","city":"hazenjacht","accent_city":"Hazenjacht","province":"Western Cape","lat":-33.550528,"lng":22.415381,"province_id":11},
{"country":"South Africa","city":"hazyview","accent_city":"Hazyview","province":"Mpumalanga","lat":-25.043983,"lng":31.12767,"province_id":7},
{"country":"South Africa","city":"healdton fingo","accent_city":"Healdton Fingo","province":"Eastern Cape","lat":-32.733333,"lng":26.666667,"province_id":5},
{"country":"South Africa","city":"healdtown","accent_city":"Healdtown","province":"Eastern Cape","lat":-32.716667,"lng":26.716667,"province_id":5},
{"country":"South Africa","city":"heather bell","accent_city":"Heather Bell","province":"Gauteng","lat":-26.083333,"lng":28.333333,"province_id":6},
{"country":"South Africa","city":"heatherlands","accent_city":"Heatherlands","province":"Western Cape","lat":-33.949486,"lng":22.442853,"province_id":11},
{"country":"South Africa","city":"heathfield","accent_city":"Heathfield","province":"Eastern Cape","lat":-31.846545,"lng":26.003817,"province_id":5},
{"country":"South Africa","city":"heathfield","accent_city":"Heathfield","province":"Western Cape","lat":-34.047645,"lng":18.46808,"province_id":11},
{"country":"South Africa","city":"heathview","accent_city":"Heathview","province":"North West","lat":-25.944668,"lng":25.39108,"province_id":10},
{"country":"South Africa","city":"heatonville","accent_city":"Heatonville","province":"KwaZulu Natal","lat":-28.661941,"lng":31.785615,"province_id":2},
{"country":"South Africa","city":"heavyrest mission","accent_city":"Heavyrest Mission","province":"North West","lat":-27.456445,"lng":24.737857,"province_id":10},
{"country":"South Africa","city":"hebehebe","accent_city":"Hebehebe","province":"Eastern Cape","lat":-32.236075,"lng":27.830299,"province_id":5},
{"country":"South Africa","city":"hebron","accent_city":"Hebron","province":"Free State","lat":-29.001927,"lng":25.962277,"province_id":3},
{"country":"South Africa","city":"hebron","accent_city":"Hebron","province":"Eastern Cape","lat":-30.675327,"lng":26.436019,"province_id":5},
{"country":"South Africa","city":"hebron","accent_city":"Hebron","province":"North West","lat":-25.550242,"lng":28.022796,"province_id":10},
{"country":"South Africa","city":"heckel","accent_city":"Heckel","province":"Eastern Cape","lat":-32.450664,"lng":27.538772,"province_id":5},
{"country":"South Africa","city":"hectorspruit","accent_city":"Hectorspruit","province":"Mpumalanga","lat":-25.441146,"lng":31.68382,"province_id":7},
{"country":"South Africa","city":"hedley plains","accent_city":"Hedley Plains","province":"Northern Cape","lat":-29.680453,"lng":21.550517,"province_id":8},
{"country":"South Africa","city":"heelfontein","accent_city":"Heelfontein","province":"Free State","lat":-29.555184,"lng":26.551272,"province_id":3},
{"country":"South Africa","city":"heelgoed","accent_city":"Heelgoed","province":"Free State","lat":-30.1,"lng":27.3,"province_id":3},
{"country":"South Africa","city":"heeltevrede","accent_city":"Heeltevrede","province":"Free State","lat":-29.017867,"lng":26.182685,"province_id":3},
{"country":"South Africa","city":"heidelberg","accent_city":"Heidelberg","province":"Gauteng","lat":-26.504759,"lng":28.359214,"province_id":6},
{"country":"South Africa","city":"heidelberg","accent_city":"Heidelberg","province":"Western Cape","lat":-34.091267,"lng":20.956611,"province_id":11},
{"country":"South Africa","city":"heidelburg","accent_city":"Heidelburg","province":"Gauteng","lat":-26.504759,"lng":28.359214,"province_id":6},
{"country":"South Africa","city":"heideveld","accent_city":"Heideveld","province":"Western Cape","lat":-33.964769,"lng":18.548435,"province_id":11},
{"country":"South Africa","city":"heights","accent_city":"Heights","province":"Eastern Cape","lat":-33.854513,"lng":23.976492,"province_id":5},
{"country":"South Africa","city":"heilbron","accent_city":"Heilbron","province":"Free State","lat":-27.281154,"lng":27.970901,"province_id":3},
{"country":"South Africa","city":"heilbron","accent_city":"Heilbron","province":"Eastern Cape","lat":-31.695219,"lng":26.06337,"province_id":5},
{"country":"South Africa","city":"heiso","accent_city":"Heiso","province":"North West","lat":-27.296651,"lng":23.828334,"province_id":10},
{"country":"South Africa","city":"hekpoort","accent_city":"Hekpoort","province":"Gauteng","lat":-25.882235,"lng":27.61654,"province_id":6},
{"country":"South Africa","city":"hekpoort","accent_city":"Hekpoort","province":"Limpopo","lat":-23.778107,"lng":29.974441,"province_id":9},
{"country":"South Africa","city":"hela hela","accent_city":"Hela Hela","province":"KwaZulu Natal","lat":-29.908307,"lng":30.097036,"province_id":2},
{"country":"South Africa","city":"zamdela","accent_city":"Zamdela","province":"Free State","lat":-26.837306,"lng":27.843526,"province_id":3},
{"country":"South Africa","city":"zamenkomst","accent_city":"Zamenkomst","province":"Mpumalanga","lat":-24.983333,"lng":29.033333,"province_id":7},
{"country":"South Africa","city":"zamokwake","accent_city":"Zamokwake","province":"KwaZulu Natal","lat":-27.994763,"lng":31.986663,"province_id":2},
{"country":"South Africa","city":"zanci","accent_city":"Zanci","province":"Eastern Cape","lat":-31.834049,"lng":28.858755,"province_id":5},
{"country":"South Africa","city":"zandbergshoop","accent_city":"Zandbergshoop","province":"Northern Cape","lat":-29.616564,"lng":21.104566,"province_id":8},
{"country":"South Africa","city":"zandbult","accent_city":"Zandbult","province":"Limpopo","lat":-23.683333,"lng":27.25,"province_id":9},
{"country":"South Africa","city":"zanddraai","accent_city":"Zanddraai","province":"Free State","lat":-27.841501,"lng":28.788046,"province_id":3},
{"country":"South Africa","city":"zandfontein","accent_city":"Zandfontein","province":"Eastern Cape","lat":-31.374506,"lng":26.202694,"province_id":5},
{"country":"South Africa","city":"zandfontein","accent_city":"Zandfontein","province":"Limpopo","lat":-23.728268,"lng":29.121947,"province_id":9},
{"country":"South Africa","city":"zandkraalpoort","accent_city":"Zandkraalpoort","province":"Eastern Cape","lat":-33.266667,"lng":24.016667,"province_id":5},
{"country":"South Africa","city":"zandkraalspoort","accent_city":"Zandkraalspoort","province":"Eastern Cape","lat":-33.266667,"lng":24.016667,"province_id":5},
{"country":"South Africa","city":"zand rivier","accent_city":"Zand Rivier","province":"Western Cape","lat":-33.151437,"lng":20.023664,"province_id":11},
{"country":"South Africa","city":"zandukwane","accent_city":"Zandukwane","province":"Eastern Cape","lat":-31.380062,"lng":28.838693,"province_id":5},
{"country":"South Africa","city":"zandvlakte","accent_city":"Zandvlakte","province":"Eastern Cape","lat":-33.581871,"lng":24.16594,"province_id":5},
{"country":"South Africa","city":"zandvlei","accent_city":"Zandvlei","province":"Northern Cape","lat":-30.63181,"lng":21.981082,"province_id":8},
{"country":"South Africa","city":"zangontshi","accent_city":"Zangontshi","province":"Eastern Cape","lat":-31.144793,"lng":29.933558,"province_id":5},
{"country":"South Africa","city":"zangotsho","accent_city":"Zangotsho","province":"Eastern Cape","lat":-31.144793,"lng":29.933558,"province_id":5},
{"country":"South Africa","city":"zangqokwe","accent_city":"Zangqokwe","province":"Eastern Cape","lat":-32.075324,"lng":26.574481,"province_id":5},
{"country":"South Africa","city":"zangwa","accent_city":"Zangwa","province":"Eastern Cape","lat":-32.427574,"lng":28.035784,"province_id":5},
{"country":"South Africa","city":"zanyokwe","accent_city":"Zanyokwe","province":"Eastern Cape","lat":-32.766667,"lng":27.1,"province_id":5},
{"country":"South Africa","city":"zaphiri","accent_city":"Zaphiri","province":"North West","lat":-27.15,"lng":23.4,"province_id":10},
{"country":"South Africa","city":"zastron","accent_city":"Zastron","province":"Free State","lat":-30.302249,"lng":27.083951,"province_id":3},
{"country":"South Africa","city":"zazulwana skool","accent_city":"Zazulwana Skool","province":"Eastern Cape","lat":-32.283333,"lng":28.15,"province_id":5},
{"country":"South Africa","city":"zazulwana","accent_city":"Zazulwana","province":"Eastern Cape","lat":-32.283333,"lng":28.15,"province_id":5},
{"country":"South Africa","city":"zebediela estates","accent_city":"Zebediela Estates","province":"Limpopo","lat":-24.3,"lng":29.25,"province_id":9},
{"country":"South Africa","city":"zebedielas location","accent_city":"Zebedielas Location","province":"Limpopo","lat":-24.416667,"lng":29.383333,"province_id":9},
{"country":"South Africa","city":"zebediela","accent_city":"Zebediela","province":"Limpopo","lat":-24.298378,"lng":29.25147,"province_id":9},
{"country":"South Africa","city":"zebra","accent_city":"Zebra","province":"Western Cape","lat":-33.763701,"lng":22.315524,"province_id":11},
{"country":"South Africa","city":"zeekoegat","accent_city":"Zeekoegat","province":"Free State","lat":-30.367163,"lng":26.884615,"province_id":3},
{"country":"South Africa","city":"zeekogat","accent_city":"Zeekogat","province":"KwaZulu Natal","lat":-29.45,"lng":30.45,"province_id":2},
{"country":"South Africa","city":"zeerust","accent_city":"Zeerust","province":"North West","lat":-25.536951,"lng":26.075117,"province_id":10},
{"country":"South Africa","city":"zending","accent_city":"Zending","province":"Limpopo","lat":-23.1,"lng":29.45,"province_id":9},
{"country":"South Africa","city":"zesfontein","accent_city":"Zesfontein","province":"Gauteng","lat":-26.082507,"lng":28.367682,"province_id":6},
{"country":"South Africa","city":"zevenjaarsfontein","accent_city":"Zevenjaarsfontein","province":"Free State","lat":-30.516667,"lng":26.833333,"province_id":3},
{"country":"South Africa","city":"zhikova","accent_city":"Zhikova","province":"Eastern Cape","lat":-33.231547,"lng":27.476486,"province_id":5},
{"country":"South Africa","city":"zibi's","accent_city":"Zibi's","province":"Eastern Cape","lat":-32.733333,"lng":26.983333,"province_id":5},
{"country":"South Africa","city":"zibukweni","accent_city":"Zibukweni","province":"Eastern Cape","lat":-30.99452,"lng":29.707741,"province_id":5},
{"country":"South Africa","city":"zibungu","accent_city":"Zibungu","province":"Eastern Cape","lat":-31.471575,"lng":29.214067,"province_id":5},
{"country":"South Africa","city":"zidindi","accent_city":"Zidindi","province":"Eastern Cape","lat":-31.990847,"lng":29.03103,"province_id":5},
{"country":"South Africa","city":"zidulini","accent_city":"Zidulini","province":"Eastern Cape","lat":-30.914011,"lng":28.909367,"province_id":5},
{"country":"South Africa","city":"ziest","accent_city":"Ziest","province":"Mpumalanga","lat":-25.781768,"lng":31.205469,"province_id":7},
{"country":"South Africa","city":"zigadini","accent_city":"Zigadini","province":"Eastern Cape","lat":-32.240151,"lng":28.053603,"province_id":5},
{"country":"South Africa","city":"zigodlo","accent_city":"Zigodlo","province":"Eastern Cape","lat":-32.981713,"lng":27.069835,"province_id":5},
{"country":"South Africa","city":"zigudu","accent_city":"Zigudu","province":"Eastern Cape","lat":-32.166667,"lng":27.483333,"province_id":5},
{"country":"South Africa","city":"zihlahleni","accent_city":"Zihlahleni","province":"Eastern Cape","lat":-32.852254,"lng":27.16546,"province_id":5},
{"country":"South Africa","city":"zihlakenpele","accent_city":"Zihlakenpele","province":"KwaZulu Natal","lat":-27.84119,"lng":31.835434,"province_id":2},
{"country":"South Africa","city":"zilandana","accent_city":"Zilandana","province":"Eastern Cape","lat":-31.104159,"lng":28.83284,"province_id":5},
{"country":"South Africa","city":"zilangwe","accent_city":"Zilangwe","province":"Eastern Cape","lat":-30.736268,"lng":29.704235,"province_id":5},
{"country":"South Africa","city":"zimbane","accent_city":"Zimbane","province":"Eastern Cape","lat":-30.744858,"lng":28.556132,"province_id":5},
{"country":"South Africa","city":"zimbileni","accent_city":"Zimbileni","province":"Eastern Cape","lat":-30.970954,"lng":28.521865,"province_id":5},
{"country":"South Africa","city":"zimbungu","accent_city":"Zimbungu","province":"Eastern Cape","lat":-31.471575,"lng":29.214067,"province_id":5},
{"country":"South Africa","city":"zimpawaneni","accent_city":"Zimpawaneni","province":"Eastern Cape","lat":-30.669662,"lng":29.118314,"province_id":5},
{"country":"South Africa","city":"zimpofu","accent_city":"Zimpofu","province":"Eastern Cape","lat":-30.610295,"lng":28.670176,"province_id":5},
{"country":"South Africa","city":"zincuka","accent_city":"Zincuka","province":"Eastern Cape","lat":-30.60944,"lng":28.582391,"province_id":5},
{"country":"South Africa","city":"zincukutwini","accent_city":"Zincukutwini","province":"Eastern Cape","lat":-31.858885,"lng":29.116879,"province_id":5},
{"country":"South Africa","city":"zinduneni","accent_city":"Zinduneni","province":"Eastern Cape","lat":-31.683333,"lng":29.2,"province_id":5},
{"country":"South Africa","city":"zingadini","accent_city":"Zingadini","province":"Eastern Cape","lat":-31.817889,"lng":27.663991,"province_id":5},
{"country":"South Africa","city":"zingcuka","accent_city":"Zingcuka","province":"Eastern Cape","lat":-30.983749,"lng":28.934455,"province_id":5},
{"country":"South Africa","city":"zingolweni","accent_city":"Zingolweni","province":"KwaZulu Natal","lat":-30.784086,"lng":30.122944,"province_id":2},
{"country":"South Africa","city":"zingonyameni","accent_city":"Zingonyameni","province":"Eastern Cape","lat":-30.608185,"lng":28.535301,"province_id":5},
{"country":"South Africa","city":"zingqutu","accent_city":"Zingqutu","province":"Eastern Cape","lat":-31.737194,"lng":27.517652,"province_id":5},
{"country":"South Africa","city":"zingqwene","accent_city":"Zingqwene","province":"Eastern Cape","lat":-31.70251,"lng":27.366481,"province_id":5},
{"country":"South Africa","city":"zingxala","accent_city":"Zingxala","province":"Eastern Cape","lat":-32.461059,"lng":28.292473,"province_id":5},
{"country":"South Africa","city":"zinkawu","accent_city":"Zinkawu","province":"Eastern Cape","lat":-31.986339,"lng":29.053538,"province_id":5},
{"country":"South Africa","city":"zinkumbini","accent_city":"Zinkumbini","province":"Eastern Cape","lat":-31.433333,"lng":29.016667,"province_id":5},
{"country":"South Africa","city":"zintlawini","accent_city":"Zintlawini","province":"Eastern Cape","lat":-31.4,"lng":28.416667,"province_id":5},
{"country":"South Africa","city":"zintukwini","accent_city":"Zintukwini","province":"Eastern Cape","lat":-31.589171,"lng":28.469676,"province_id":5},
{"country":"South Africa","city":"zinyosini","accent_city":"Zinyosini","province":"Eastern Cape","lat":-31.093449,"lng":29.128581,"province_id":5},
{"country":"South Africa","city":"ziqalabeni","accent_city":"Ziqalabeni","province":"Eastern Cape","lat":-30.53127,"lng":28.790541,"province_id":5},
{"country":"South Africa","city":"ziqangweni","accent_city":"Ziqangweni","province":"Eastern Cape","lat":-31.65,"lng":29.483333,"province_id":5},
{"country":"South Africa","city":"ziqhorana","accent_city":"Ziqhorana","province":"Eastern Cape","lat":-32.270029,"lng":28.651673,"province_id":5},
{"country":"South Africa","city":"zirkie","accent_city":"Zirkie","province":"Northern Cape","lat":-28.95,"lng":22.816667,"province_id":8},
{"country":"South Africa","city":"zisovini","accent_city":"Zisovini","province":"Eastern Cape","lat":-31.583813,"lng":26.97655,"province_id":5},
{"country":"South Africa","city":"zitapile","accent_city":"Zitapile","province":"Eastern Cape","lat":-30.569706,"lng":28.861246,"province_id":5},
{"country":"South Africa","city":"zitenjini","accent_city":"Zitenjini","province":"Eastern Cape","lat":-31.880796,"lng":28.84903,"province_id":5},
{"country":"South Africa","city":"zitenji","accent_city":"Zitenji","province":"Eastern Cape","lat":-32.404261,"lng":28.668335,"province_id":5},
{"country":"South Africa","city":"zithulele","accent_city":"Zithulele","province":"Eastern Cape","lat":-32.047906,"lng":29.059159,"province_id":5},
{"country":"South Africa","city":"ziwundwana","accent_city":"Ziwundwana","province":"Eastern Cape","lat":-31.983333,"lng":28.166667,"province_id":5},
{"country":"South Africa","city":"ziwundwane","accent_city":"Ziwundwane","province":"Eastern Cape","lat":-31.983333,"lng":28.166667,"province_id":5},
{"country":"South Africa","city":"zixekeni","accent_city":"Zixekeni","province":"Eastern Cape","lat":-31.933333,"lng":28.783333,"province_id":5},
{"country":"South Africa","city":"zizityaneni","accent_city":"Zizityaneni","province":"Eastern Cape","lat":-30.876794,"lng":29.734028,"province_id":5},
{"country":"South Africa","city":"zoar","accent_city":"Zoar","province":"Western Cape","lat":-33.495597,"lng":21.443733,"province_id":11},
{"country":"South Africa","city":"zoekmakaar","accent_city":"Zoekmakaar","province":"Limpopo","lat":-23.492459,"lng":29.942164,"province_id":9},
{"country":"South Africa","city":"zoekmekaar","accent_city":"Zoekmekaar","province":"Limpopo","lat":-23.492459,"lng":29.942164,"province_id":9},
{"country":"South Africa","city":"zoetap","accent_city":"Zoetap","province":"Northern Cape","lat":-28.772375,"lng":20.641862,"province_id":8},
{"country":"South Africa","city":"zoetdoorns","accent_city":"Zoetdoorns","province":"Limpopo","lat":-23.366667,"lng":29.4,"province_id":9},
{"country":"South Africa","city":"zoetevelden","accent_city":"Zoetevelden","province":"Limpopo","lat":-24.726156,"lng":29.743045,"province_id":9},
{"country":"South Africa","city":"zoetkopjes","accent_city":"Zoetkopjes","province":"Limpopo","lat":-24.641921,"lng":28.971751,"province_id":9},
{"country":"South Africa","city":"zoetvelden","accent_city":"Zoetvelden","province":"Limpopo","lat":-24.726156,"lng":29.743045,"province_id":9},
{"country":"South Africa","city":"zondela","accent_city":"Zondela","province":"KwaZulu Natal","lat":-28.306163,"lng":31.443798,"province_id":2},
{"country":"South Africa","city":"zonderhule south","accent_city":"Zonderhule South","province":"Northern Cape","lat":-29.666667,"lng":20.916667,"province_id":8},
{"country":"South Africa","city":"zonderwater","accent_city":"Zonderwater","province":"Gauteng","lat":-25.689545,"lng":28.542572,"province_id":6},
{"country":"South Africa","city":"zonga","accent_city":"Zonga","province":"Eastern Cape","lat":-32.427574,"lng":28.035784,"province_id":5},
{"country":"South Africa","city":"zonnehoeve","accent_city":"Zonnehoeve","province":"Gauteng","lat":-26.070272,"lng":27.875403,"province_id":6},
{"country":"South Africa","city":"zonnekus","accent_city":"Zonnekus","province":"Western Cape","lat":-33.883333,"lng":18.483333,"province_id":11},
{"country":"South Africa","city":"zonquasdrift","accent_city":"Zonquasdrift","province":"Western Cape","lat":-33.342928,"lng":18.975061,"province_id":11},
{"country":"South Africa","city":"zoo als hy lykt","accent_city":"Zoo Als Hy Lykt","province":"Mpumalanga","lat":-26.815218,"lng":29.86402,"province_id":7},
{"country":"South Africa","city":"zotsha","accent_city":"Zotsha","province":"KwaZulu Natal","lat":-30.783333,"lng":30.383333,"province_id":2},
{"country":"South Africa","city":"zout kuil","accent_city":"Zout Kuil","province":"Western Cape","lat":-33.516667,"lng":20.166667,"province_id":11},
{"country":"South Africa","city":"zoutrivier","accent_city":"Zoutrivier","province":"Western Cape","lat":-33.932547,"lng":18.466182,"province_id":11},
{"country":"South Africa","city":"zuinguin","accent_city":"Zuinguin","province":"KwaZulu Natal","lat":-27.633333,"lng":30.816667,"province_id":2},
{"country":"South Africa","city":"zulumema","accent_city":"Zulumema","province":"Eastern Cape","lat":-32.241715,"lng":26.640541,"province_id":5},
{"country":"South Africa","city":"zuma","accent_city":"Zuma","province":"KwaZulu Natal","lat":-30.455999,"lng":30.086139,"province_id":2},
{"country":"South Africa","city":"zunckels","accent_city":"Zunckels","province":"KwaZulu Natal","lat":-28.85307,"lng":29.397663,"province_id":2},
{"country":"South Africa","city":"zungwini","accent_city":"Zungwini","province":"KwaZulu Natal","lat":-27.633333,"lng":30.816667,"province_id":2},
{"country":"South Africa","city":"zusterstroom","accent_city":"Zusterstroom","province":"Gauteng","lat":-25.547049,"lng":28.947346,"province_id":6},
{"country":"South Africa","city":"zuurbraak","accent_city":"Zuurbraak","province":"Western Cape","lat":-34.004425,"lng":20.654317,"province_id":11},
{"country":"South Africa","city":"zuurfontein","accent_city":"Zuurfontein","province":"Free State","lat":-29.833333,"lng":26.816667,"province_id":3},
{"country":"South Africa","city":"zuurspruit","accent_city":"Zuurspruit","province":"Free State","lat":-29.766532,"lng":26.38529,"province_id":3},
{"country":"South Africa","city":"zwaar draai","accent_city":"Zwaar Draai","province":"Northern Cape","lat":-28.65,"lng":20.466667,"province_id":8},
{"country":"South Africa","city":"zwaartkop native location","accent_city":"Zwaartkop Native Location","province":"Limpopo","lat":-24.7,"lng":30.166667,"province_id":9},
{"country":"South Africa","city":"zwartberg","accent_city":"Zwartberg","province":"KwaZulu Natal","lat":-30.238399,"lng":29.340833,"province_id":2},
{"country":"South Africa","city":"zwartbooystad","accent_city":"Zwartbooystad","province":"North West","lat":-25.26827,"lng":28.169312,"province_id":10},
{"country":"South Africa","city":"zwartfontein work colony","accent_city":"Zwartfontein Work Colony","province":"Mpumalanga","lat":-25.206854,"lng":30.944757,"province_id":7},
{"country":"South Africa","city":"zwart klip","accent_city":"Zwart Klip","province":"Western Cape","lat":-34.083333,"lng":18.683333,"province_id":11},
{"country":"South Africa","city":"zwartkops","accent_city":"Zwartkops","province":"Eastern Cape","lat":-33.864057,"lng":25.601104,"province_id":5},
{"country":"South Africa","city":"zwartkop","accent_city":"Zwartkop","province":"Eastern Cape","lat":-33.864057,"lng":25.601104,"province_id":5},
{"country":"South Africa","city":"zwartkop","accent_city":"Zwartkop","province":"Limpopo","lat":-24.783333,"lng":27.283333,"province_id":9},
{"country":"South Africa","city":"zwartmodderfontein","accent_city":"Zwartmodderfontein","province":"KwaZulu Natal","lat":-30.422681,"lng":28.879968,"province_id":2},
{"country":"South Africa","city":"zwartmodder","accent_city":"Zwartmodder","province":"Northern Cape","lat":-28.027398,"lng":20.552269,"province_id":8},
{"country":"South Africa","city":"zwartruggens","accent_city":"Zwartruggens","province":"North West","lat":-25.650215,"lng":26.688564,"province_id":10},
{"country":"South Africa","city":"zwartwater","accent_city":"Zwartwater","province":"Eastern Cape","lat":-31.636543,"lng":26.838577,"province_id":5},
{"country":"South Africa","city":"zwartwater","accent_city":"Zwartwater","province":"Northern Cape","lat":-28.483333,"lng":16.75,"province_id":8},
{"country":"South Africa","city":"zwa-zakele","accent_city":"Zwa-Zakele","province":"Eastern Cape","lat":-33.875934,"lng":25.574323,"province_id":5},
{"country":"South Africa","city":"zweletemba","accent_city":"Zweletemba","province":"Western Cape","lat":-33.648766,"lng":19.490119,"province_id":11},
{"country":"South Africa","city":"zwelidumile","accent_city":"Zwelidumile","province":"Eastern Cape","lat":-32.3,"lng":28.6,"province_id":5},
{"country":"South Africa","city":"zwelitsha","accent_city":"Zwelitsha","province":"Eastern Cape","lat":-32.919991,"lng":27.425858,"province_id":5},
{"country":"South Africa","city":"zwide","accent_city":"Zwide","province":"Eastern Cape","lat":-33.867294,"lng":25.563919,"province_id":5},
{"country":"South Africa","city":"springfontein","accent_city":"Springfontein","province":"Mpumalanga","lat":-26.092131,"lng":29.987053,"province_id":7},
{"country":"South Africa","city":"spring hill","accent_city":"Spring Hill","province":"Eastern Cape","lat":-32.116667,"lng":28.85,"province_id":5},
{"country":"South Africa","city":"springkaanfontein","accent_city":"Springkaanfontein","province":"Free State","lat":-29.515957,"lng":27.056234,"province_id":3},
{"country":"South Africa","city":"springs","accent_city":"Springs","province":"Free State","lat":-29.469251,"lng":26.859645,"province_id":3},
{"country":"South Africa","city":"springs","accent_city":"Springs","province":"Eastern Cape","lat":-31.466667,"lng":28.366667,"province_id":5},
{"country":"South Africa","city":"spring's","accent_city":"Spring's","province":"Eastern Cape","lat":-32.461584,"lng":28.063725,"province_id":5},
{"country":"South Africa","city":"springs","accent_city":"Springs","province":"Gauteng","lat":-26.25,"lng":28.4,"province_id":6},
{"country":"South Africa","city":"spring vale south african national tuberculosis settlement","accent_city":"Spring Vale South African National Tuberculosis Settlement","province":"Eastern Cape","lat":-31.630058,"lng":28.67741,"province_id":5},
{"country":"South Africa","city":"springvale","accent_city":"Springvale","province":"Eastern Cape","lat":-31.182426,"lng":25.754708,"province_id":5},
{"country":"South Africa","city":"spring vale","accent_city":"Spring Vale","province":"Eastern Cape","lat":-31.630058,"lng":28.67741,"province_id":5},
{"country":"South Africa","city":"springvale","accent_city":"Springvale","province":"Eastern Cape","lat":-31.717554,"lng":25.789744,"province_id":5},
{"country":"South Africa","city":"springvale","accent_city":"Springvale","province":"North West","lat":-26.87727,"lng":26.807703,"province_id":10},
{"country":"South Africa","city":"spring valley","accent_city":"Spring Valley","province":"Eastern Cape","lat":-30.774648,"lng":26.409097,"province_id":5},
{"country":"South Africa","city":"spykerras","accent_city":"Spykerras","province":"Gauteng","lat":-25.455556,"lng":28.266944,"province_id":6},
{"country":"South Africa","city":"square hill","accent_city":"Square Hill","province":"Western Cape","lat":-34.066747,"lng":18.465988,"province_id":11},
{"country":"South Africa","city":"staatsplaas","accent_city":"Staatsplaas","province":"Eastern Cape","lat":-31.683333,"lng":27.2,"province_id":5},
{"country":"South Africa","city":"stable","accent_city":"Stable","province":"Limpopo","lat":-23.133333,"lng":30.516667,"province_id":9},
{"country":"South Africa","city":"stafford's post","accent_city":"Stafford's Post","province":"KwaZulu Natal","lat":-30.516667,"lng":29.75,"province_id":2},
{"country":"South Africa","city":"stafpoort","accent_city":"Stafpoort","province":"Free State","lat":-30.070113,"lng":26.386473,"province_id":3},
{"country":"South Africa","city":"standerston","accent_city":"Standerston","province":"Mpumalanga","lat":-26.933655,"lng":29.241518,"province_id":7},
{"country":"South Africa","city":"standerton","accent_city":"Standerton","province":"Mpumalanga","lat":-26.933655,"lng":29.241518,"province_id":7},
{"country":"South Africa","city":"standplaas","accent_city":"Standplaas","province":"Western Cape","lat":-33.977928,"lng":22.576874,"province_id":11},
{"country":"South Africa","city":"standplaats","accent_city":"Standplaats","province":"Western Cape","lat":-33.977928,"lng":22.576874,"province_id":11},
{"country":"South Africa","city":"stanfieldhill","accent_city":"Stanfieldhill","province":"Mpumalanga","lat":-26.917403,"lng":29.209746,"province_id":7},
{"country":"South Africa","city":"stanford","accent_city":"Stanford","province":"Western Cape","lat":-34.439403,"lng":19.456154,"province_id":11},
{"country":"South Africa","city":"stanger","accent_city":"Stanger","province":"KwaZulu Natal","lat":-29.328164,"lng":31.289537,"province_id":2},
{"country":"South Africa","city":"stanger station","accent_city":"Stanger Station","province":"KwaZulu Natal","lat":-29.328164,"lng":31.289537,"province_id":2},
{"country":"South Africa","city":"steadmore","accent_city":"Steadmore","province":"KwaZulu Natal","lat":-29.611899,"lng":29.539343,"province_id":2},
{"country":"South Africa","city":"steelpoort","accent_city":"Steelpoort","province":"Mpumalanga","lat":-24.731176,"lng":30.205835,"province_id":7},
{"country":"South Africa","city":"steel's drift","accent_city":"Steel's Drift","province":"Free State","lat":-27.355589,"lng":29.485141,"province_id":3},
{"country":"South Africa","city":"steelwater","accent_city":"Steelwater","province":"Western Cape","lat":-33.699346,"lng":18.58848,"province_id":11},
{"country":"South Africa","city":"steenberg","accent_city":"Steenberg","province":"Western Cape","lat":-34.074425,"lng":18.470234,"province_id":11},
{"country":"South Africa","city":"steenbokpan","accent_city":"Steenbokpan","province":"Limpopo","lat":-23.69532,"lng":27.284107,"province_id":9},
{"country":"South Africa","city":"steenbras","accent_city":"Steenbras","province":"Western Cape","lat":-34.15,"lng":18.15,"province_id":11},
{"country":"South Africa","city":"stefanus","accent_city":"Stefanus","province":"Free State","lat":-30.533114,"lng":26.798661,"province_id":3},
{"country":"South Africa","city":"steilloop bridge","accent_city":"Steilloop Bridge","province":"Limpopo","lat":-23.416318,"lng":28.623476,"province_id":9},
{"country":"South Africa","city":"steilloopbrug","accent_city":"Steilloopbrug","province":"Limpopo","lat":-23.416318,"lng":28.623476,"province_id":9},
{"country":"South Africa","city":"steillopbrug","accent_city":"Steillopbrug","province":"Limpopo","lat":-23.416318,"lng":28.623476,"province_id":9},
{"country":"South Africa","city":"steilnek","accent_city":"Steilnek","province":"North West","lat":-26.014574,"lng":24.809561,"province_id":10},
{"country":"South Africa","city":"steilrand","accent_city":"Steilrand","province":"KwaZulu Natal","lat":-27.8,"lng":31.233333,"province_id":2},
{"country":"South Africa","city":"steinau","accent_city":"Steinau","province":"Eastern Cape","lat":-31.137856,"lng":27.272862,"province_id":5},
{"country":"South Africa","city":"steinkopf","accent_city":"Steinkopf","province":"Northern Cape","lat":-29.262954,"lng":17.733405,"province_id":8},
{"country":"South Africa","city":"stellaland","accent_city":"Stellaland","province":"Free State","lat":-29.616667,"lng":26.95,"province_id":3},
{"country":"South Africa","city":"stella","accent_city":"Stella","province":"North West","lat":-26.552983,"lng":24.866835,"province_id":10},
{"country":"South Africa","city":"stellenberg","accent_city":"Stellenberg","province":"Western Cape","lat":-33.866088,"lng":18.659923,"province_id":11},
{"country":"South Africa","city":"stellenbosch","accent_city":"Stellenbosch","province":"Western Cape","lat":-33.934621,"lng":18.866762,"province_id":11},
{"country":"South Africa","city":"stendal","accent_city":"Stendal","province":"KwaZulu Natal","lat":-28.771258,"lng":30.113717,"province_id":2},
{"country":"South Africa","city":"stenekamps kop","accent_city":"Stenekamps Kop","province":"Free State","lat":-28.516667,"lng":28.183333,"province_id":3},
{"country":"South Africa","city":"sterkfontein","accent_city":"Sterkfontein","province":"Free State","lat":-29.784915,"lng":26.80914,"province_id":3},
{"country":"South Africa","city":"sterkfontein","accent_city":"Sterkfontein","province":"Eastern Cape","lat":-31.558276,"lng":25.664383,"province_id":5},
{"country":"South Africa","city":"sterkfontein","accent_city":"Sterkfontein","province":"Limpopo","lat":-25.033333,"lng":29.6,"province_id":9},
{"country":"South Africa","city":"sterkloop","accent_city":"Sterkloop","province":"Mpumalanga","lat":-25.5274,"lng":29.846342,"province_id":7},
{"country":"South Africa","city":"sterkloop","accent_city":"Sterkloop","province":"Limpopo","lat":-23.812179,"lng":29.917093,"province_id":9},
{"country":"South Africa","city":"sterkrivier","accent_city":"Sterkrivier","province":"Limpopo","lat":-24.157874,"lng":28.740054,"province_id":9},
{"country":"South Africa","city":"sterkspruit","accent_city":"Sterkspruit","province":"Eastern Cape","lat":-30.526512,"lng":27.367425,"province_id":5},
{"country":"South Africa","city":"sterkspruit","accent_city":"Sterkspruit","province":"Mpumalanga","lat":-25.373544,"lng":30.528783,"province_id":7},
{"country":"South Africa","city":"sterkstroom","accent_city":"Sterkstroom","province":"Free State","lat":-30.575602,"lng":26.945455,"province_id":3},
{"country":"South Africa","city":"sterkstroom","accent_city":"Sterkstroom","province":"Eastern Cape","lat":-31.557139,"lng":26.554165,"province_id":5},
{"country":"South Africa","city":"sterkwater","accent_city":"Sterkwater","province":"Free State","lat":-30.378806,"lng":26.70655,"province_id":3},
{"country":"South Africa","city":"sterlefontein","accent_city":"Sterlefontein","province":"Free State","lat":-29.25,"lng":26.066667,"province_id":3},
{"country":"South Africa","city":"sterling park","accent_city":"Sterling Park","province":"Eastern Cape","lat":-31.812832,"lng":26.42732,"province_id":5},
{"country":"South Africa","city":"sternham","accent_city":"Sternham","province":"Northern Cape","lat":-28.895309,"lng":21.983782,"province_id":8},
{"country":"South Africa","city":"steunmekaar","accent_city":"Steunmekaar","province":"Free State","lat":-29.503143,"lng":25.524089,"province_id":3},
{"country":"South Africa","city":"stevnsrus","accent_city":"Stevnsrus","province":"Eastern Cape","lat":-31.294845,"lng":25.79783,"province_id":5},
{"country":"South Africa","city":"stewartby","accent_city":"Stewartby","province":"North West","lat":-26.133333,"lng":26.183333,"province_id":10},
{"country":"South Africa","city":"stewarton","accent_city":"Stewarton","province":"Eastern Cape","lat":-30.883333,"lng":26.2,"province_id":5},
{"country":"South Africa","city":"steynsburg","accent_city":"Steynsburg","province":"Eastern Cape","lat":-31.295649,"lng":25.823382,"province_id":5},
{"country":"South Africa","city":"steynsdorp","accent_city":"Steynsdorp","province":"Mpumalanga","lat":-26.118163,"lng":30.981736,"province_id":7},
{"country":"South Africa","city":"steynskraal","accent_city":"Steynskraal","province":"Free State","lat":-29.452651,"lng":25.704191,"province_id":3},
{"country":"South Africa","city":"steynsnek","accent_city":"Steynsnek","province":"Eastern Cape","lat":-31.175417,"lng":26.856302,"province_id":5},
{"country":"South Africa","city":"steynsrus","accent_city":"Steynsrus","province":"Free State","lat":-27.953333,"lng":27.563944,"province_id":3},
{"country":"South Africa","city":"steynsrust","accent_city":"Steynsrust","province":"Free State","lat":-27.953333,"lng":27.563944,"province_id":3},
{"country":"South Africa","city":"steynsrust","accent_city":"Steynsrust","province":"Eastern Cape","lat":-30.856867,"lng":26.771302,"province_id":5},
{"country":"South Africa","city":"steytlerville","accent_city":"Steytlerville","province":"Eastern Cape","lat":-33.332744,"lng":24.34539,"province_id":5},
{"country":"South Africa","city":"sthaberg","accent_city":"Sthaberg","province":"North West","lat":-25.41136,"lng":27.123867,"province_id":10},
{"country":"South Africa","city":"stiebeuelvlei","accent_city":"Stiebeuelvlei","province":"Northern Cape","lat":-30.416667,"lng":20.95,"province_id":8},
{"country":"South Africa","city":"stilbaai-oos","accent_city":"Stilbaai-Oos","province":"Western Cape","lat":-34.368528,"lng":21.42083,"province_id":11},
{"country":"South Africa","city":"stilbaai","accent_city":"Stilbaai","province":"Western Cape","lat":-34.369303,"lng":21.407481,"province_id":11},
{"country":"South Africa","city":"stilbaaistrand","accent_city":"Stilbaaistrand","province":"Western Cape","lat":-34.368528,"lng":21.42083,"province_id":11},
{"country":"South Africa","city":"stilbaai-wes","accent_city":"Stilbaai-Wes","province":"Western Cape","lat":-34.379044,"lng":21.417225,"province_id":11},
{"country":"South Africa","city":"stilfontein","accent_city":"Stilfontein","province":"Free State","lat":-29.493227,"lng":26.597143,"province_id":3},
{"country":"South Africa","city":"stilfontein","accent_city":"Stilfontein","province":"North West","lat":-26.844926,"lng":26.768294,"province_id":10},
{"country":"South Africa","city":"stil gelee","accent_city":"Stil Gelee","province":"Gauteng","lat":-25.595044,"lng":28.262489,"province_id":6},
{"country":"South Africa","city":"still bay east","accent_city":"Still Bay East","province":"Western Cape","lat":-34.368528,"lng":21.42083,"province_id":11},
{"country":"South Africa","city":"still bay","accent_city":"Still Bay","province":"Western Cape","lat":-34.369303,"lng":21.407481,"province_id":11},
{"country":"South Africa","city":"still bay strand","accent_city":"Still Bay Strand","province":"Western Cape","lat":-34.368528,"lng":21.42083,"province_id":11},
{"country":"South Africa","city":"still bay west","accent_city":"Still Bay West","province":"Western Cape","lat":-34.379044,"lng":21.417225,"province_id":11},
{"country":"South Africa","city":"stillerus","accent_city":"Stillerus","province":"Free State","lat":-29.3,"lng":26.6,"province_id":3},
{"country":"South Africa","city":"stillerus","accent_city":"Stillerus","province":"Northern Cape","lat":-29.054977,"lng":21.995577,"province_id":8},
{"country":"South Africa","city":"stillerus","accent_city":"Stillerus","province":"North West","lat":-27.26267,"lng":23.861132,"province_id":10},
{"country":"South Africa","city":"stillerust","accent_city":"Stillerust","province":"Free State","lat":-29.445332,"lng":25.719659,"province_id":3},
{"country":"South Africa","city":"stillerust","accent_city":"Stillerust","province":"Eastern Cape","lat":-31.108198,"lng":26.135173,"province_id":5},
{"country":"South Africa","city":"stillestroom","accent_city":"Stillestroom","province":"Free State","lat":-29.667327,"lng":26.070199,"province_id":3},
{"country":"South Africa","city":"stille woning","accent_city":"Stille Woning","province":"Free State","lat":-29.039193,"lng":26.048673,"province_id":3},
{"country":"South Africa","city":"stilstaan-en-afspring","accent_city":"Stilstaan-en-Afspring","province":"Northern Cape","lat":-29.791615,"lng":21.025481,"province_id":8},
{"country":"South Africa","city":"stilverwag","accent_city":"Stilverwag","province":"Northern Cape","lat":-29.787053,"lng":21.975256,"province_id":8},
{"country":"South Africa","city":"stinkbrak","accent_city":"Stinkbrak","province":"Northern Cape","lat":-30.157294,"lng":22.055812,"province_id":8},
{"country":"South Africa","city":"stinkfontein","accent_city":"Stinkfontein","province":"Northern Cape","lat":-28.823496,"lng":17.254173,"province_id":8},
{"country":"South Africa","city":"stinkhoutfontein","accent_city":"Stinkhoutfontein","province":"Free State","lat":-29.809788,"lng":26.014333,"province_id":3},
{"country":"South Africa","city":"stinkord","accent_city":"Stinkord","province":"Eastern Cape","lat":-30.848402,"lng":28.615524,"province_id":5},
{"country":"South Africa","city":"stink puts","accent_city":"Stink Puts","province":"Northern Cape","lat":-30.266667,"lng":20.183333,"province_id":8},
{"country":"South Africa","city":"stinkwater","accent_city":"Stinkwater","province":"North West","lat":-25.387942,"lng":28.15817,"province_id":10},
{"country":"South Africa","city":"stock basin","accent_city":"Stock Basin","province":"Eastern Cape","lat":-31.610634,"lng":27.504348,"province_id":5},
{"country":"South Africa","city":"stockdale","accent_city":"Stockdale","province":"Eastern Cape","lat":-31.710556,"lng":26.048839,"province_id":5},
{"country":"South Africa","city":"stockton","accent_city":"Stockton","province":"Eastern Cape","lat":-31.247181,"lng":25.53084,"province_id":5},
{"country":"South Africa","city":"stockville","accent_city":"Stockville","province":"Western Cape","lat":-33.849999,"lng":20.115027,"province_id":11},
{"country":"South Africa","city":"stofbakkies","accent_city":"Stofbakkies","province":"Northern Cape","lat":-29.666667,"lng":19.2,"province_id":8},
{"country":"South Africa","city":"stofberg-gedenkskool","accent_city":"Stofberg-Gedenkskool","province":"Gauteng","lat":-26.833333,"lng":28.066667,"province_id":6},
{"country":"South Africa","city":"stofberg","accent_city":"Stofberg","province":"Gauteng","lat":-26.833333,"lng":28.066667,"province_id":6},
{"country":"South Africa","city":"stoffberggedenkskool","accent_city":"Stoffberggedenkskool","province":"Gauteng","lat":-26.833333,"lng":28.066667,"province_id":6},
{"country":"South Africa","city":"stoffberg","accent_city":"Stoffberg","province":"Mpumalanga","lat":-25.416667,"lng":28.833333,"province_id":7},
{"country":"South Africa","city":"stoffelshoek","accent_city":"Stoffelshoek","province":"North West","lat":-25.89496,"lng":23.197091,"province_id":10},
{"country":"South Africa","city":"stokwes basin","accent_city":"Stokwes Basin","province":"Eastern Cape","lat":-31.610634,"lng":27.504348,"province_id":5},
{"country":"South Africa","city":"stompneusbaai","accent_city":"Stompneusbaai","province":"Western Cape","lat":-32.724192,"lng":17.975436,"province_id":11},
{"country":"South Africa","city":"stompneus bay","accent_city":"Stompneus Bay","province":"Western Cape","lat":-32.724192,"lng":17.975436,"province_id":11},
{"country":"South Africa","city":"stomp","accent_city":"Stomp","province":"Mpumalanga","lat":-25.192262,"lng":29.10553,"province_id":7},
{"country":"South Africa","city":"stone edge","accent_city":"Stone Edge","province":"Limpopo","lat":-23.023566,"lng":29.897816,"province_id":9},
{"country":"South Africa","city":"stoneleigh","accent_city":"Stoneleigh","province":"Eastern Cape","lat":-31.041533,"lng":25.686322,"province_id":5},
{"country":"South Africa","city":"stoneycroft","accent_city":"Stoneycroft","province":"Eastern Cape","lat":-30.810979,"lng":26.343684,"province_id":5},
{"country":"South Africa","city":"stoney croft","accent_city":"Stoney Croft","province":"Eastern Cape","lat":-31.682617,"lng":27.320084,"province_id":5},
{"country":"South Africa","city":"ston","accent_city":"Ston","province":"KwaZulu Natal","lat":-29.333333,"lng":30.966667,"province_id":2},
{"country":"South Africa","city":"stoomhoek","accent_city":"Stoomhoek","province":"Free State","lat":-28.807514,"lng":26.105131,"province_id":3},
{"country":"South Africa","city":"stormberg","accent_city":"Stormberg","province":"Eastern Cape","lat":-31.283333,"lng":26.283333,"province_id":5},
{"country":"South Africa","city":"storms river","accent_city":"Storms River","province":"Eastern Cape","lat":-33.973789,"lng":23.886632,"province_id":5},
{"country":"South Africa","city":"stormsriviermond","accent_city":"Stormsriviermond","province":"Eastern Cape","lat":-34.019898,"lng":23.896281,"province_id":5},
{"country":"South Africa","city":"stormsrivier","accent_city":"Stormsrivier","province":"Eastern Cape","lat":-33.973789,"lng":23.886632,"province_id":5},
{"country":"South Africa","city":"stormsvlei","accent_city":"Stormsvlei","province":"Western Cape","lat":-34.083391,"lng":20.096196,"province_id":11},
{"country":"South Africa","city":"strandfontein","accent_city":"Strandfontein","province":"Northern Cape","lat":-30.966667,"lng":17.666667,"province_id":8},
{"country":"South Africa","city":"strandfontein","accent_city":"Strandfontein","province":"Western Cape","lat":-34.073097,"lng":18.561189,"province_id":11},
{"country":"South Africa","city":"strandskloof","accent_city":"Strandskloof","province":"Western Cape","lat":-34.578137,"lng":19.44257,"province_id":11},
{"country":"South Africa","city":"strand","accent_city":"Strand","province":"Western Cape","lat":-34.106869,"lng":18.827513,"province_id":11},
{"country":"South Africa","city":"strathavon","accent_city":"Strathavon","province":"Gauteng","lat":-26.1,"lng":28.066667,"province_id":6},
{"country":"South Africa","city":"strathfield","accent_city":"Strathfield","province":"Eastern Cape","lat":-31.568734,"lng":26.680767,"province_id":5},
{"country":"South Africa","city":"strathmore park","accent_city":"Strathmore Park","province":"KwaZulu Natal","lat":-28.172757,"lng":30.212473,"province_id":2},
{"country":"South Africa","city":"strathroy","accent_city":"Strathroy","province":"KwaZulu Natal","lat":-30.558469,"lng":28.880282,"province_id":2},
{"country":"South Africa","city":"straussburg","accent_city":"Straussburg","province":"Northern Cape","lat":-28.4381,"lng":21.332139,"province_id":8},
{"country":"South Africa","city":"strazon estates","accent_city":"Strazon Estates","province":"Mpumalanga","lat":-26.166667,"lng":28.95,"province_id":7},
{"country":"South Africa","city":"streatham","accent_city":"Streatham","province":"Limpopo","lat":-24.316667,"lng":30.283333,"province_id":9},
{"country":"South Africa","city":"struisbaai","accent_city":"Struisbaai","province":"Western Cape","lat":-34.803655,"lng":20.054739,"province_id":11},
{"country":"South Africa","city":"struis bay","accent_city":"Struis Bay","province":"Western Cape","lat":-34.803655,"lng":20.054739,"province_id":11},
{"country":"South Africa","city":"struishoek","accent_city":"Struishoek","province":"Northern Cape","lat":-28.845035,"lng":17.262103,"province_id":8},
{"country":"South Africa","city":"strydberg post","accent_city":"Strydberg Post","province":"KwaZulu Natal","lat":-30.610205,"lng":29.220571,"province_id":2},
{"country":"South Africa","city":"strydenburg","accent_city":"Strydenburg","province":"Northern Cape","lat":-29.94313,"lng":23.676003,"province_id":8},
{"country":"South Africa","city":"strydfontein","accent_city":"Strydfontein","province":"KwaZulu Natal","lat":-30.467768,"lng":29.111807,"province_id":2},
{"country":"South Africa","city":"strydfontein","accent_city":"Strydfontein","province":"Free State","lat":-30.221281,"lng":26.255733,"province_id":3},
{"country":"South Africa","city":"strydfontein","accent_city":"Strydfontein","province":"Eastern Cape","lat":-30.798355,"lng":26.947665,"province_id":5},
{"country":"South Africa","city":"strydfontein","accent_city":"Strydfontein","province":"Gauteng","lat":-25.637033,"lng":28.040381,"province_id":6},
{"country":"South Africa","city":"strydfontein","accent_city":"Strydfontein","province":"North West","lat":-25.045837,"lng":26.304178,"province_id":10},
{"country":"South Africa","city":"strydkraal","accent_city":"Strydkraal","province":"Limpopo","lat":-24.470017,"lng":29.713806,"province_id":9},
{"country":"South Africa","city":"strydom college","accent_city":"Strydom College","province":"Free State","lat":-29.166667,"lng":26.783333,"province_id":3},
{"country":"South Africa","city":"strydpoort","accent_city":"Strydpoort","province":"Free State","lat":-30.543028,"lng":26.605718,"province_id":3},
{"country":"South Africa","city":"studholme","accent_city":"Studholme","province":"Limpopo","lat":-22.968531,"lng":29.969394,"province_id":9},
{"country":"South Africa","city":"studtis","accent_city":"Studtis","province":"Eastern Cape","lat":-33.545312,"lng":23.983182,"province_id":5},
{"country":"South Africa","city":"stutterheim","accent_city":"Stutterheim","province":"Eastern Cape","lat":-32.57076,"lng":27.423961,"province_id":5},
{"country":"South Africa","city":"stuurmanspoort","accent_city":"Stuurmanspoort","province":"Northern Cape","lat":-30.763773,"lng":21.990811,"province_id":8},
{"country":"South Africa","city":"stylrand","accent_city":"Stylrand","province":"KwaZulu Natal","lat":-27.8,"lng":31.233333,"province_id":2},
{"country":"South Africa","city":"subridge","accent_city":"Subridge","province":"Northern Cape","lat":-28.959166,"lng":22.515555,"province_id":8},
{"country":"South Africa","city":"sugarbush","accent_city":"Sugarbush","province":"Eastern Cape","lat":-30.818554,"lng":29.202893,"province_id":5},
{"country":"South Africa","city":"suger bush","accent_city":"Suger Bush","province":"Eastern Cape","lat":-30.818554,"lng":29.202893,"province_id":5},
{"country":"South Africa","city":"suideinde","accent_city":"Suideinde","province":"Eastern Cape","lat":-33.973393,"lng":25.620363,"province_id":5},
{"country":"South Africa","city":"suidelyn","accent_city":"Suidelyn","province":"Free State","lat":-30.159226,"lng":26.940531,"province_id":3},
{"country":"South Africa","city":"suiderkruis","accent_city":"Suiderkruis","province":"Western Cape","lat":-34.057898,"lng":22.226938,"province_id":11},
{"country":"South Africa","city":"suider-paarl","accent_city":"Suider-Paarl","province":"Western Cape","lat":-33.768168,"lng":18.966352,"province_id":11},
{"country":"South Africa","city":"suid-holland","accent_city":"Suid-Holland","province":"Limpopo","lat":-23.890356,"lng":28.913758,"province_id":9},
{"country":"South Africa","city":"suikerbostuin","accent_city":"Suikerbostuin","province":"North West","lat":-25.833333,"lng":27.133333,"province_id":10},
{"country":"South Africa","city":"suikersteek","accent_city":"Suikersteek","province":"Northern Cape","lat":-28.366667,"lng":20.166667,"province_id":8},
{"country":"South Africa","city":"suits me","accent_city":"Suits Me","province":"KwaZulu Natal","lat":-28.721915,"lng":32.04246,"province_id":2},
{"country":"South Africa","city":"sukani","accent_city":"Sukani","province":"Limpopo","lat":-23.316667,"lng":30.716667,"province_id":9},
{"country":"South Africa","city":"sukses","accent_city":"Sukses","province":"Northern Cape","lat":-30.545989,"lng":21.693993,"province_id":8},
{"country":"South Africa","city":"sulenkama","accent_city":"Sulenkama","province":"Eastern Cape","lat":-31.017873,"lng":28.686056,"province_id":5},
{"country":"South Africa","city":"sulphur springs","accent_city":"Sulphur Springs","province":"Mpumalanga","lat":-27.178711,"lng":31.095201,"province_id":7},
{"country":"South Africa","city":"sulphur spring","accent_city":"Sulphur Spring","province":"Mpumalanga","lat":-27.178711,"lng":31.095201,"province_id":7},
{"country":"South Africa","city":"sultanaoord","accent_city":"Sultanaoord","province":"Northern Cape","lat":-28.416139,"lng":21.458677,"province_id":8},
{"country":"South Africa","city":"summer pride","accent_city":"Summer Pride","province":"Free State","lat":-29.205522,"lng":26.274465,"province_id":3},
{"country":"South Africa","city":"summer pride","accent_city":"Summer Pride","province":"Eastern Cape","lat":-30.695572,"lng":26.474169,"province_id":5},
{"country":"South Africa","city":"summerstrand","accent_city":"Summerstrand","province":"Eastern Cape","lat":-33.990685,"lng":25.66376,"province_id":5},
{"country":"South Africa","city":"sumsare","accent_city":"Sumsare","province":"Limpopo","lat":-23.187867,"lng":30.275624,"province_id":9},
{"country":"South Africa","city":"sun city","accent_city":"Sun City","province":"North West","lat":-25.346381,"lng":27.097333,"province_id":10},
{"country":"South Africa","city":"sundrift","accent_city":"Sundrift","province":"KwaZulu Natal","lat":-30.729767,"lng":29.828351,"province_id":2},
{"country":"South Africa","city":"sundumbili","accent_city":"Sundumbili","province":"KwaZulu Natal","lat":-29.133711,"lng":31.397521,"province_id":2},
{"country":"South Africa","city":"sunduza","accent_city":"Sunduza","province":"Eastern Cape","lat":-32.133333,"lng":28.683333,"province_id":5},
{"country":"South Africa","city":"sunduzi","accent_city":"Sunduzi","province":"Eastern Cape","lat":-32.133333,"lng":28.683333,"province_id":5},
{"country":"South Africa","city":"sundwana","accent_city":"Sundwana","province":"Eastern Cape","lat":-31.472279,"lng":28.060803,"province_id":5},